stop_id,stop_name,stop_lat,stop_lon,stop_url,location_type
241211,Gewerkschaftshaus,49.490494,8.475352,,0
215106,Pettenkoferstraße,49.486024,8.422367,,0
215105,Pettenkoferstraße,49.486025,8.422462,,0
262106,Freyaplatz,49.529627,8.492129,,0
218962,Rheingönheim Bahnhof,49.447107,8.409659,,0
218961,Rheingönheim Bahnhof,49.44679,8.40941,,0
244805,Neckarvorlandstraße,49.504454,8.444327,,0
213206,Giulini,49.452931,8.425044,,0
213205,Giulini,49.452255,8.424487,,0
127701,Saarstr.,49.386002,8.686429,,0
215308,Froschlache,49.490846,8.392777,,0
127702,Saarstr.,49.386108,8.686583,,0
215305,Froschlache,49.491621,8.391291,,0
240106,Kunstverein,49.479576,8.487575,,0
120435,Agnesistraße,49.40597,8.6622,,0
113512,Kapellenweg,49.42505,8.68637,,0
119462,Stadtwerke,49.405512,8.682809,,0
250512,Diesterwegschule,49.471,8.47007,,0
259606,Schwabenstraße,49.462628,8.567545,,0
640801,Waldweg,49.429824,8.697839,,0
460606,Hauptstraße,49.445182,8.419972,,0
460605,Hauptstraße,49.445311,8.420769,,0
259411,Seckenheim Rathaus,49.46729,8.5625,,0
131203,Hausackerweg,49.418213,8.727708,,0
131202,Hausackerweg,49.418231,8.72761,,0
131201,Hausackerweg,49.41827,8.727725,,0
255805,Sandhofen Friedhof,49.550528,8.453603,,0
240611,Fernmeldeturm,49.486875,8.493401,,0
206706,Bgm.-Krafft-Platz,49.473431,8.450596,,0
220301,Ruchheim,49.478501,8.32755,,0
124002,Schwimmbad,49.420333,8.659375,,0
124001,Schwimmbad,49.420269,8.659377,,0
220302,Ruchheim,49.478632,8.327849,,0
220305,Ruchheim,49.478798,8.32753,,0
220307,Ruchheim,49.477779,8.326769,,0
220306,Ruchheim,49.478792,8.327653,,0
232706,Elsa-Brändström-Str.,49.450214,8.565505,,0
305305,Franklin Mitte,49.518879,8.531138,,0
259006,Lämmertränke,49.461057,8.569198,,0
407711,Hohensachsen,49.520176,8.655371,,0
261105,Alsenweg,49.532072,8.48357,,0
261106,Alsenweg,49.531806,8.484358,,0
664805,Erich-Kästner-Straße,49.485752,8.368548,,0
238609,Luzenberg,49.51602,8.474993,http://www.rnv-online.de/liniennetz/wichtige-umsteigepunkte.html,0
116301,Kaiserstr.,49.402588,8.691693,,0
116302,Kaiserstr.,49.401936,8.691475,,0
235707,Lanzvilla,49.485143,8.486737,,0
250602,Voltastraße,49.461073,8.490272,,0
235705,Lanzvilla,49.48453,8.48721,,0
262105,Freyaplatz,49.52972,8.493079,,0
235708,Lanzvilla,49.485018,8.4869,,0
238605,Luzenberg,49.516587,8.475594,http://www.rnv-online.de/liniennetz/wichtige-umsteigepunkte.html,0
220236,Ruchheim Schloss,49.474312,8.330452,,0
302611,Gerd-Dehof-Platz,49.466051,8.509829,,0
246402,Pfeifferswörth,49.489403,8.501694,,0
246401,Pfeifferswörth,49.48952,8.501169,,0
246407,Pfeifferswörth,49.48956,8.502489,,0
221964,BASF Süd,49.493145,8.435993,,0
246405,Pfeifferswörth,49.48968,8.50178,,0
246408,Pfeifferswörth,49.489334,8.500935,,0
65802,Ellerstadt West,49.462614,8.255178,,0
237705,Gebweilerstraße,49.437847,8.571489,,0
218206,Stützelstraße,49.516271,8.400832,,0
218205,Stützelstraße,49.516477,8.40065,,0
265001,Waldfriedhof,49.53586,8.49453,,0
265005,Waldfriedhof,49.53582,8.49497,,0
265006,Waldfriedhof,49.53586,8.49486,,0
301206,Apostelkirche,49.487434,8.432406,,0
255106,Pigagestraße,49.413797,8.528143,,0
255105,Pigagestraße,49.413982,8.528086,,0
301205,Apostelkirche,49.487437,8.432591,,0
113311,Burgstr.,49.434352,8.682286,,0
113312,Burgstr.,49.43497,8.68202,,0
554412,Universitätsklinikum,49.49388,8.48448,,0
554411,Universitätsklinikum,49.493571,8.483875,,0
249506,Mallaustraße,49.454321,8.509674,,0
249505,Mallaustraße,49.454213,8.509992,,0
345405,Kormoranstraße,49.501774,8.545895,,0
300102,Bildungszentrum,49.384035,8.805847,,0
134501,Wolfsbrunnensteige,49.41318,8.744943,,0
251006,Fardelystraße,49.50383,8.45769,,0
251005,Fardelystraße,49.50407,8.45853,,0
254706,Rohrhofer Straße,49.420867,8.525928,,0
254705,Rohrhofer Straße,49.420643,8.525749,,0
113401,Jellinekstrasse,49.361523,8.705279,,0
264511,Wallstadt West,49.500533,8.543849,,0
264512,Wallstadt West,49.500258,8.544402,,0
202705,Rüdigerstraße,49.528354,8.394856,,0
202706,Rüdigerstraße,49.528199,8.394948,,0
554707,Käfertal Bahnhof,49.50982,8.51818,,0
554702,Käfertal Bahnhof,49.510136,8.518556,,0
554701,Käfertal Bahnhof,49.50963,8.518189,,0
615806,Prager Straße,49.54185,8.38886,,0
685606,Eastsite,49.475291,8.506018,,0
132901,Stiftsmühle,49.41748,8.744061,,0
408511,Lützels. Pilgerhaus,49.532683,8.658312,,0
408512,Lützels. Pilgerhaus,49.533272,8.658551,,0
132902,Stiftsmühle,49.417458,8.743893,,0
299702,Kümmelbacher Hof,49.393146,8.776656,,0
118801,Im Neulich,49.430053,8.699441,,0
232001,Neckarplatt,49.488966,8.512692,,0
232002,Neckarplatt,49.488908,8.5122,,0
232005,Neckarplatt,49.489085,8.512492,,0
264601,Stollenwörth,49.451014,8.473143,,0
264602,Stollenwörth,49.450599,8.471935,,0
232006,Neckarplatt,49.488863,8.511902,,0
413212,Rosenbrunnen,49.54141,8.661009,,0
413211,Rosenbrunnen,49.540771,8.660701,,0
213202,Giulini,49.453035,8.425188,,0
246135,Völklinger Straße MA,49.505672,8.517441,,0
213201,Giulini,49.453492,8.425452,,0
240105,Kunstverein,49.479228,8.487647,,0
248905,Helmertstraße,49.454212,8.513884,,0
248906,Helmertstraße,49.454262,8.513618,,0
554505,Mannheimer Straße,49.508355,8.512816,,0
215306,Froschlache,49.49152,8.393056,,0
258706,Deutscher Hof,49.471119,8.556543,,0
258705,Deutscher Hof,49.471233,8.55496,,0
263511,Wallstadt Bahnhof,49.498805,8.548714,,0
263512,Wallstadt Bahnhof,49.498484,8.549386,,0
554506,Mannheimer Straße,49.50843,8.512952,,0
429352,Wilhelmsfeld Rathaus,49.465532,8.760854,,0
429351,Wilhelmsfeld Rathaus,49.465725,8.760736,,0
258905,Kapellenplatz,49.462604,8.555039,,0
258906,Kapellenplatz,49.46278,8.55518,,0
207606,LU Hochschule,49.472619,8.421887,,0
570004,Oggersheim,49.488181,8.363979,,0
570002,Oggersheim,49.488298,8.364314,,0
570003,Oggersheim,49.48854,8.36447,,0
570001,Oggersheim,49.48845,8.3647,,0
233605,Friedrichsf. Kreuz,49.446784,8.57656,,0
239708,Bgm.-Fuchs-Straße,49.501167,8.463657,,0
252705,Faltkistenwerk,49.421307,8.511682,,0
252706,Faltkistenwerk,49.421346,8.51059,,0
239702,Bgm.-Fuchs-Straße,49.501265,8.463843,,0
239701,Bgm.-Fuchs-Straße,49.501285,8.463646,,0
131901,Löwen,49.444626,8.754152,,0
239705,Bgm.-Fuchs-Straße,49.501156,8.46385,,0
263205,Alemannenstraße,49.494961,8.553181,,0
144502,Schafhof,49.486066,8.786912,,0
212762,Mundenheim Bahnhof,49.461796,8.421978,,0
212761,Mundenheim Bahnhof,49.461573,8.421602,,0
283306,Saarburger Ring,49.445908,8.575648,,0
216806,Bgm.-Zorn-Platz,49.52229,8.397465,,0
216805,Bgm.-Zorn-Platz,49.521906,8.397547,,0
203702,Rottstückerweg,49.502925,8.415464,,0
680505,Riedstraße,49.455471,8.37806,,0
680506,Riedstraße,49.455427,8.377979,,0
128703,S-Bf Schlierb./Zgh.,49.415211,8.761804,,0
212361,Maudacher Bruch,49.456836,8.398064,,0
266705,Aufden Ried,49.50258,8.53785,,0
127802,Rohrbach Süd,49.365841,8.688737,,0
127801,Rohrbach Süd,49.365576,8.68871,,0
127804,Rohrbach Süd,49.36548,8.688865,,0
241202,Gewerkschaftshaus,49.489219,8.475889,,0
241205,Gewerkschaftshaus,49.490216,8.47574,,0
214407,Damaschkestraße,49.471375,8.404339,,0
214406,Damaschkestraße,49.471844,8.404414,,0
679501,Messplatz,49.390931,8.675377,,0
410911,Weinheim Hauptbahnh.,49.551846,8.665462,,0
410912,Weinheim Hauptbahnh.,49.5513,8.665368,,0
679503,Messplatz,49.39135,8.675316,,0
117662,Molkenkur,49.40699,8.714965,,0
256911,Collini-Center,49.49192,8.47614,,0
256912,Collini-Center,49.491326,8.478094,,0
209705,Rhein-Galerie,49.484802,8.447682,http://www.rnv-online.de/liniennetz/wichtige-umsteigepunkte.html,0
209706,Rhein-Galerie,49.484454,8.447667,http://www.rnv-online.de/liniennetz/wichtige-umsteigepunkte.html,0
231602,Hölderlinstraße,49.496388,8.52962,,0
231601,Hölderlinstraße,49.496471,8.52991,,0
231606,Hölderlinstraße,49.496422,8.530452,,0
115802,Gneisenaustr.,49.408504,8.667737,,0
115801,Gneisenaustr.,49.409293,8.668681,,0
209002,Marienkirche,49.485483,8.430418,,0
206802,Bgm.-Kutterer-Straße,49.477567,8.440958,,0
298901,Eichendorffstr.,49.385017,8.803274,,0
206801,Bgm.-Kutterer-Straße,49.47792,8.44156,,0
206806,Bgm.-Kutterer-Straße,49.478257,8.442269,,0
212561,Am Schwanen,49.46292,8.429125,,0
212562,Am Schwanen,49.463405,8.42955,,0
206805,Bgm.-Kutterer-Straße,49.4778,8.44125,,0
276505,Wohlgelegen EKZ,49.503703,8.499612,,0
255806,Sandhofen Friedhof,49.550197,8.452324,,0
262001,Freilichtbühne,49.53354,8.49295,,0
262002,Freilichtbühne,49.53392,8.49327,,0
267505,Frankenstraße,49.492924,8.55107,,0
117401,Marstallstr.,49.413275,8.705563,,0
117403,Marstallstr.,49.413076,8.705414,,0
117402,Marstallstr.,49.413332,8.705944,,0
206705,Bgm.-Krafft-Platz,49.473151,8.450213,,0
250702,Neckarau West,49.455093,8.481908,,0
240612,Fernmeldeturm,49.486838,8.493381,,0
302412,Husarenweg,49.469078,8.502988,,0
240005,Bunsenstraße,49.501937,8.456521,,0
215206,Oggersheim Friedhof,49.497193,8.367582,,0
302411,Husarenweg,49.46935,8.50244,,0
51601,Dossenheim Süd,49.445563,8.675291,,0
51602,Dossenheim Süd,49.446053,8.674996,,0
131302,Ziegelhausen Kirche,49.417835,8.761189,,0
124101,Sportzentrum Nord,49.426467,8.66057,,0
220205,Ruchheim Schloss,49.471548,8.33074,,0
220206,Ruchheim Schloss,49.471512,8.3295,,0
128461,S-Bf Orthopädie,49.410389,8.774848,,0
128462,S-Bf Orthopädie,49.410455,8.775092,,0
122608,Technologiepark,49.418625,8.675051,,0
122603,Technologiepark,49.418988,8.675012,,0
122602,Technologiepark,49.419414,8.676353,,0
122601,Technologiepark,49.418888,8.676243,,0
235911,Boveristraße,49.505104,8.501902,,0
122605,Technologiepark,49.419555,8.675467,,0
614402,Universitäts-Campus,49.413432,8.67031,,0
407712,Hohensachsen,49.520754,8.655305,,0
261206,Altrheinstraße,49.525592,8.471197,,0
261205,Altrheinstraße,49.525699,8.471097,,0
261202,Altrheinstraße,49.525856,8.470917,,0
261201,Altrheinstraße,49.525371,8.471178,,0
125302,Im Wellengewann,49.409561,8.640697,,0
125301,Im Wellengewann,49.409355,8.640745,,0
235606,Käfertal DB-Bahnhof,49.502777,8.50351,,0
250701,Neckarau West,49.455663,8.481916,,0
203606,Riedsaumpark,49.495315,8.404724,,0
203605,Riedsaumpark,49.495306,8.404695,,0
250705,Neckarau West,49.45518,8.482002,,0
236805,Kometenweg,49.523559,8.511851,,0
236806,Kometenweg,49.523234,8.511631,,0
850915,Wendestelle Hbw,49.452795,8.751154,,0
85601,Friedelsheim,49.45802,8.224837,,0
85602,Friedelsheim,49.45809,8.22477,,0
134401,Jettaweg,49.413239,8.743107,,0
208901,Ludwigstraße,49.482905,8.448643,,0
246305,Therese-Blase-Straße,49.503068,8.526765,,0
112301,Fernheizwerk,49.376132,8.706823,,0
212961,Feuerwache,49.464558,8.435598,,0
212962,Feuerwache,49.464602,8.435965,,0
111901,Neckarmünzplatz,49.413764,8.713173,,0
219205,Friedensstraße,49.449061,8.423169,,0
219206,Friedensstraße,49.44959,8.423574,,0
244412,Nationaltheater,49.487646,8.478515,,0
237601,Käfertal Süd,49.507198,8.50633,,0
237602,Käfertal Süd,49.506904,8.505361,,0
237606,Käfertal Süd,49.507201,8.50591,,0
237607,Käfertal Süd,49.507275,8.506113,,0
250012,Windeckstraße,49.473892,8.468792,,0
265105,Malzstraße,49.513442,8.517913,,0
122805,Bunsengymnasium,49.416955,8.6755,,0
122804,Bunsengymnasium,49.417051,8.676804,,0
122801,Bunsengymnasium,49.416166,8.676361,,0
122803,Bunsengymnasium,49.416925,8.676881,,0
122802,Bunsengymnasium,49.417658,8.676348,,0
208401,Hemshofstraße,49.49192,8.43721,,0
208402,Hemshofstraße,49.49234,8.43667,,0
269736,Steinzeugstraße,49.447624,8.567391,,0
216305,Uferstraße,49.504479,8.374793,,0
210437,Schützenstraße,49.478729,8.446593,,0
114606,Bismarckplatz,49.40967,8.6933,http://www.rnv-online.de/liniennetz/wichtige-umsteigepunkte.html,0
202605,Kranichstraße,49.536212,8.385158,,0
202606,Kranichstraße,49.536061,8.385151,,0
235706,Lanzvilla,49.484265,8.487313,,0
243311,Lessingstraße,49.489203,8.485588,,0
243312,Lessingstraße,49.489241,8.485415,,0
250601,Voltastraße,49.461609,8.489984,,0
587651,Vorderheubach Höhe,49.488419,8.777598,,0
257405,Haderslebener Straße,49.541882,8.481095,,0
257406,Haderslebener Straße,49.542287,8.48103,,0
121602,Odenwaldstr.,49.379159,8.669412,,0
121601,Odenwaldstr.,49.379042,8.669159,,0
554606,Im Rott,49.507599,8.528855,,0
232101,Neckarstraße,49.484298,8.53281,,0
232102,Neckarstraße,49.484285,8.532123,,0
232105,Neckarstraße,49.484294,8.53348,,0
132801,Steinbacher Tal,49.422176,8.754605,,0
132802,Steinbacher Tal,49.422536,8.753788,,0
115301,Drei Eichen,49.380226,8.723647,,0
115302,Drei Eichen,49.38026,8.72367,,0
243405,Gutenbergstraße,49.49287,8.50406,,0
243406,Gutenbergstraße,49.49292,8.50392,,0
114303,Bethanienkrankenhaus,49.392121,8.690217,,0
233506,Vogesenstraße,49.442582,8.578985,,0
233505,Vogesenstraße,49.442513,8.579022,,0
123601,Mönchhofschule,49.417355,8.68723,,0
123602,Mönchhofschule,49.417402,8.685717,,0
108101,Redtenbacherstraße,49.362996,8.681495,,0
145501,Steigerweg,49.39694,8.69473,,0
299601,Herrenweg,49.381116,8.803296,,0
262905,Waldpforte,49.537981,8.49674,,0
262906,Waldpforte,49.537902,8.496597,,0
110801,Am Bächenbuckel,49.423157,8.760749,,0
110802,Am Bächenbuckel,49.422894,8.760241,,0
248805,Freiheitsplatz,49.45958,8.479514,,0
248801,Freiheitsplatz,49.459509,8.479394,,0
248802,Freiheitsplatz,49.459056,8.479705,,0
217306,Kirchenstraße,49.520014,8.398479,,0
217305,Kirchenstraße,49.519768,8.398578,,0
188602,Georgi-Marktplatz,49.34955,8.68889,,0
188601,Georgi-Marktplatz,49.3492,8.68888,,0
126706,Freiburger Str.,49.373448,8.687936,,0
208902,Ludwigstraße,49.48337,8.44805,,0
126704,Freiburger Str.,49.374008,8.686339,,0
126705,Freiburger Str.,49.374363,8.687659,,0
126702,Freiburger Str.,49.373726,8.688077,,0
126703,Freiburger Str.,49.373877,8.686472,,0
126701,Freiburger Str.,49.373385,8.688023,,0
258005,Tilsiter Straße,49.552423,8.467873,,0
258006,Tilsiter Straße,49.552377,8.467593,,0
239606,Jakobuskirche,49.543809,8.453288,,0
239605,Jakobuskirche,49.544009,8.454043,,0
221962,BASF Süd,49.494087,8.4347,,0
216906,Dammbruchstraße,49.523388,8.401726,,0
216905,Dammbruchstraße,49.523505,8.401635,,0
77105,FT Hauptbahnhof,49.53638,8.35027,,0
145402,S-Bf Pfaffeng./Wbl.,49.412054,8.641154,,0
120635,Bauhaus,49.40708,8.65482,,0
253406,Karl-Schwaner-Straße,49.419177,8.533699,,0
261905,Wetzlarer Winkel,49.522527,8.489606,,0
261906,Wetzlarer Winkel,49.522511,8.489544,,0
680405,Nelkestraße,49.456888,8.375254,,0
680406,Nelkestraße,49.456727,8.375438,,0
681006,Heuweg,49.473308,8.409472,,0
241301,Bonifatiuskirche,49.49858,8.48918,,0
241302,Bonifatiuskirche,49.4989,8.48987,,0
241303,Bonifatiuskirche,49.49892,8.48849,,0
241304,Bonifatiuskirche,49.49937,8.48851,,0
241305,Bonifatiuskirche,49.49915,8.49007,,0
214506,Niederfeld,49.475494,8.401605,,0
241307,Bonifatiuskirche,49.499028,8.488392,,0
241308,Bonifatiuskirche,49.49916,8.48864,,0
241309,Bonifatiuskirche,49.498117,8.489144,,0
260505,Straßenheimer Weg,49.51152,8.555958,,0
189002,Zementwerk,49.35776,8.68934,,0
189001,Zementwerk,49.357484,8.689371,,0
231105,Adolf-Damaschke-Ring,49.493209,8.521225,,0
231106,Adolf-Damaschke-Ring,49.493407,8.521015,,0
115902,Hans-Böckler-Str.,49.405407,8.692664,,0
115901,Hans-Böckler-Str.,49.40543,8.692615,,0
231108,Adolf-Damaschke-Ring,49.493116,8.520931,,0
61606,Edingen Ost,49.444668,8.617545,,0
298861,Dreikreuzweg,49.384148,8.802546,,0
120702,Kirchheim Friedhof,49.375877,8.659324,,0
302405,Husarenweg,49.468872,8.500115,,0
302406,Husarenweg,49.468848,8.500076,,0
124602,Zoo/Med. Klinik,49.414833,8.665504,,0
117501,MPI Astronomie,49.396507,8.723722,,0
110201,Villa Schmeil,49.415892,8.73217,,0
687706,Strandbad Blies,49.475468,8.415165,,0
304104,Im Bieth,49.38681,8.662561,,0
687705,Strandbad Blies,49.475622,8.41541,,0
349535,Glücksteinallee,49.473019,8.47669,,0
245805,Rheinstraße MA,49.491228,8.459621,,0
245804,Rheinstraße MA,49.490984,8.457928,,0
204862,Marienkrankenhaus,49.459667,8.409743,,0
245802,Rheinstraße MA,49.490993,8.458235,,0
245801,Rheinstraße MA,49.490926,8.457725,,0
204861,Marienkrankenhaus,49.459553,8.408879,,0
328405,Nachtweide,49.541306,8.405202,,0
255206,G.-Hauptmann-Schule,49.41484,8.540178,,0
235902,Boveristraße,49.505491,8.502731,,0
235905,Boveristraße,49.506344,8.500241,,0
682601,Rolloßweg,49.430257,8.691002,,0
235906,Boveristraße,49.506008,8.500574,,0
94001,Gönnheim,49.458214,8.232891,,0
94002,Gönnheim,49.457911,8.231342,,0
61920,Edingen Bahnhof,49.441641,8.614209,,0
282906,Kirchwaldstraße,49.53495,8.49126,,0
240306,Dudenstraße,49.500264,8.501492,,0
240305,Dudenstraße,49.500756,8.500978,,0
247405,Wasserwerkstraße,49.51438,8.521487,,0
588302,Burg Waldeck,49.487931,8.785837,,0
131502,Kleingemünder Str.,49.417477,8.762994,,0
131503,Kleingemünder Str.,49.417538,8.762847,,0
244706,Abendakademie,49.491827,8.470052,,0
122702,Olympiastützpunkt,49.422591,8.658304,,0
122701,Olympiastützpunkt,49.422419,8.658362,,0
62405,Neckarh. Brücke,49.468567,8.598713,,0
664505,Ebertpark Süd,49.487158,8.414749,,0
62406,Neckarh. Brücke,49.469119,8.597588,,0
244701,Abendakademie,49.491532,8.469762,,0
254101,EMBL,49.383782,8.709849,,0
261306,Am Herrschaftswald,49.534066,8.507532,,0
261305,Am Herrschaftswald,49.533825,8.507749,,0
257805,Eislebener Weg,49.5089,8.55072,,0
211201,Heinrich-Ries-Halle,49.487532,8.42693,,0
211202,Heinrich-Ries-Halle,49.488293,8.4258,,0
116102,Hirschgasse,49.415976,8.716003,,0
116101,Hirschgasse,49.416292,8.716972,,0
209406,Fieskostraße,49.489547,8.373026,,0
250005,Windeckstraße,49.474535,8.468614,,0
128701,S-Bf Schlierb./Zgh.,49.415424,8.761045,,0
128702,S-Bf Schlierb./Zgh.,49.415396,8.761244,,0
203701,Rottstückerweg,49.502713,8.41608,,0
203706,Rottstückerweg,49.50267,8.41599,,0
128705,S-Bf Schlierb./Zgh.,49.415574,8.761132,,0
128706,S-Bf Schlierb./Zgh.,49.415382,8.762567,,0
203705,Rottstückerweg,49.502959,8.415621,,0
252005,Maimarkt,49.470345,8.522668,,0
236905,Neues Leben,49.519264,8.502937,,0
236906,Neues Leben,49.519305,8.502594,,0
344605,Käfertal Kulturhaus,49.51023,8.516179,,0
246205,Schloss MA,49.484659,8.462137,,0
246206,Schloss MA,49.48474,8.46253,,0
246201,Schloss MA,49.48518,8.46386,,0
246202,Schloss MA,49.484592,8.463276,,0
62311,Edingen West,49.4474,8.60354,,0
62312,Edingen West,49.44644,8.60506,,0
237501,Käfertaler Wald,49.52949,8.50923,,0
237505,Käfertaler Wald,49.529461,8.509445,,0
255705,Bürstadter Straße,49.535491,8.453338,,0
112201,Buchwaldweg,49.3704,8.705261,,0
255706,Bürstadter Straße,49.535015,8.454007,,0
255701,Bürstadter Straße,49.535219,8.453306,,0
255702,Bürstadter Straße,49.535534,8.452918,,0
119201,St. Vinc.-Krankenhaus,49.41202,8.697264,,0
269905,Werner-Heisenberg-S.,49.528761,8.450831,,0
119202,St. Vinc.-Krankenhaus,49.412024,8.697329,,0
304161,Im Bieth,49.38668,8.66248,,0
106705,St.-Martin-Straße,49.445718,8.615686,,0
216006,Rheinhorststraße,49.503305,8.37124,,0
242305,Hombuschstraße,49.515985,8.460473,,0
242306,Hombuschstraße,49.516327,8.460821,,0
554611,Im Rott,49.507916,8.527829,,0
213006,Mundenheim Friedhof,49.46815,8.417421,,0
554612,Im Rott,49.507693,8.527988,,0
282905,Kirchwaldstraße,49.53494,8.49112,,0
414612,Weinheim Alt. OEG-Bf,49.548651,8.664895,,0
414610,Weinheim Alt. OEG-Bf,49.548664,8.664931,,0
695901,Im Bosseldorn,49.383799,8.682118,,0
257706,Königsberger Allee,49.546528,8.469283,,0
257705,Königsberger Allee,49.546602,8.469045,,0
207661,LU Hochschule,49.474111,8.422464,,0
115002,Christuskirche,49.401812,8.685094,,0
115001,Christuskirche,49.401588,8.685321,,0
554901,MVV-Hochhaus,49.49395,8.465591,,0
554902,MVV-Hochhaus,49.493891,8.467133,,0
233406,Friedr. Südbahnhof,49.439144,8.573104,,0
233407,Friedr. Südbahnhof,49.438708,8.573045,,0
233405,Friedr. Südbahnhof,49.438675,8.572555,,0
232805,Langlachweg,49.44632,8.571874,,0
239105,Stolberger Straße,49.517847,8.47417,,0
239106,Stolberger Straße,49.518508,8.473496,,0
207805,Halberg,49.476789,8.451081,,0
207806,Halberg,49.477152,8.451111,,0
169311,SRH Campus,49.415694,8.649356,,0
169312,SRH Campus,49.415157,8.649425,,0
280506,Fr.-Engelhorn-Straße,49.49996,8.497148,,0
299502,Hanfmarkt,49.394708,8.796683,,0
299501,Hanfmarkt,49.394833,8.796819,,0
244411,Nationaltheater,49.487641,8.476773,,0
245305,Planetarium,49.476516,8.488974,,0
245306,Planetarium,49.476534,8.489762,,0
246706,Teufelsbrücke,49.49403,8.457072,,0
213761,Knappenwegstraße,49.463687,8.418447,,0
245301,Planetarium,49.476617,8.489474,,0
245302,Planetarium,49.47667,8.49043,,0
130411,Wiebl. Taubenfeld,49.428779,8.642431,,0
130412,Wiebl. Taubenfeld,49.428327,8.642799,,0
244306,Mühldorferstraße,49.476946,8.488044,,0
244305,Mühldorferstraße,49.477099,8.488082,,0
258105,M.-Winterhalter-Ring,49.551121,8.481247,,0
258106,M.-Winterhalter-Ring,49.551635,8.481388,,0
555402,Schönau Siedlung,49.53988,8.47346,,0
555401,Schönau Siedlung,49.54004,8.47347,,0
240805,Groß-Gerauer Straße,49.548821,8.442349,,0
345001,Sparkasse,49.434879,8.80936,,0
261401,Erlöserkirche,49.52536,8.49779,,0
130301,Rhein-Neckar-Werkst.,49.362812,8.675344,,0
69501,Jakobsgasse,49.401043,8.63284,,0
253706,Lüderitzstraße,49.419147,8.534963,,0
253705,Lüderitzstraße,49.419212,8.53514,,0
69502,Jakobsgasse,49.401001,8.633073,,0
680706,Wasserwerk,49.473671,8.36408,,0
680705,Wasserwerk,49.473751,8.364191,,0
260406,Schweriner Weg,49.506992,8.534868,,0
260405,Schweriner Weg,49.506806,8.534369,,0
427203,HD Hauptbahnhof Süd,49.40145,8.67259,,0
225801,Fahrlach,49.473513,8.498257,,0
427201,HD Hauptbahnhof Süd,49.402,8.673845,,0
427204,HD Hauptbahnhof Süd,49.4011,8.672364,,0
223006,Am Herrschaftsweiher,49.479934,8.330722,,0
223005,Am Herrschaftsweiher,49.479541,8.329472,,0
251706,Grünewaldstraße,49.478393,8.509275,,0
118012,Ochsenkopf,49.409427,8.653085,,0
118011,Ochsenkopf,49.409559,8.652087,,0
217106,Oppau Gemeindehaus,49.521706,8.403954,,0
51511,Dossenheim Bahnhof,49.448188,8.670168,,0
204706,Leininger Straße,49.459398,8.402572,,0
204705,Leininger Straße,49.458771,8.402993,,0
51512,Dossenheim Bahnhof,49.448554,8.669532,,0
386512,Viernheim Tivoli,49.528292,8.565693,,0
386511,Viernheim Tivoli,49.528109,8.564867,,0
124702,Im Buschgewann,49.39744,8.648609,,0
302502,Ulanenweg,49.467381,8.50676,,0
302505,Ulanenweg,49.467646,8.503414,,0
302506,Ulanenweg,49.467609,8.503474,,0
245906,Rosengarten,49.485896,8.475988,,0
245902,Rosengarten,49.48572,8.47564,,0
554301,Theresienkrankenhaus,49.489768,8.480702,,0
245901,Rosengarten,49.485285,8.475284,,0
203006,Kreuzstraße,49.49707,8.413501,,0
215006,Buschwegbrücke,49.495093,8.377819,,0
247501,Wasserturm,49.48497,8.47321,,0
247502,Wasserturm,49.484668,8.47382,,0
215005,Buschwegbrücke,49.495157,8.377869,,0
240202,Dalbergstraße,49.493288,8.461014,,0
247505,Wasserturm,49.484859,8.474716,,0
247506,Wasserturm,49.484159,8.474047,,0
240201,Dalbergstraße,49.493674,8.461299,,0
247508,Wasserturm,49.483333,8.473874,,0
248005,August-Bebel-Straße,49.466714,8.480291,,0
248006,August-Bebel-Straße,49.466775,8.480068,,0
682701,E.-Hübner-Platz,49.428165,8.687577,,0
682702,E.-Hübner-Platz,49.428459,8.687503,,0
679462,Montpellierbrücke,49.400467,8.67828,,0
212907,Feuerwache,49.463204,8.435529,,0
231905,Liebfrauenstraße,49.488443,8.523444,,0
231906,Liebfrauenstraße,49.488325,8.523669,,0
254005,Martinskirche,49.417622,8.527429,,0
254006,Martinskirche,49.417712,8.527175,,0
116006,HD Hauptbahnhof,49.404888,8.675783,http://www.rnv-online.de/liniennetz/wichtige-umsteigepunkte.html,0
116007,HD Hauptbahnhof,49.404328,8.677042,http://www.rnv-online.de/liniennetz/wichtige-umsteigepunkte.html,0
116004,HD Hauptbahnhof,49.404964,8.675764,http://www.rnv-online.de/liniennetz/wichtige-umsteigepunkte.html,0
116005,HD Hauptbahnhof,49.404743,8.676457,http://www.rnv-online.de/liniennetz/wichtige-umsteigepunkte.html,0
211106,Wittelsbachplatz,49.475108,8.443354,,0
211105,Wittelsbachplatz,49.475599,8.44369,,0
116001,HD Hauptbahnhof,49.404808,8.676514,http://www.rnv-online.de/liniennetz/wichtige-umsteigepunkte.html,0
685605,Eastsite,49.47546,8.505993,,0
116008,HD Hauptbahnhof,49.404301,8.678673,http://www.rnv-online.de/liniennetz/wichtige-umsteigepunkte.html,0
217206,Horst-Schork-Straße,49.515322,8.406408,,0
664906,Westlich B9,49.482968,8.353726,,0
664905,Westlich B9,49.483778,8.35317,,0
217205,Horst-Schork-Straße,49.515336,8.406527,,0
752105,Rheinallee Süd,49.474476,8.455389,,0
664902,Westlich B9,49.48335,8.35364,,0
664901,Westlich B9,49.483492,8.354283,,0
752106,Rheinallee Süd,49.47463,8.45561,,0
299761,Kümmelbacher Hof,49.392925,8.776759,,0
344701,Marktplatz,49.437077,8.809844,,0
295406,Krügerstraße,49.45348,8.516174,,0
295405,Krügerstraße,49.453396,8.516078,,0
218505,Brüsseler Ring,49.53764,8.38451,,0
218506,Brüsseler Ring,49.53752,8.38438,,0
408412,Lützelsachsen Bergs.,49.527175,8.657345,,0
129401,Grenzhöfer Weg,49.426139,8.644071,,0
129402,Grenzhöfer Weg,49.426501,8.644973,,0
262805,Taunusplatz,49.52423,8.48504,,0
112101,Boxbergring,49.378254,8.704338,,0
262806,Taunusplatz,49.523727,8.485582,,0
237406,Sonnenschein,49.521836,8.505098,,0
237405,Sonnenschein,49.521976,8.505325,,0
115105,Czernybrücke,49.406868,8.671285,,0
115103,Czernybrücke,49.406753,8.671077,,0
119301,Stadtbücherei,49.40626,8.68698,,0
119302,Stadtbücherei,49.40609,8.685971,,0
126012,Brückenstr.,49.41573,8.69212,,0
126011,Brückenstr.,49.41524,8.692092,,0
234506,Niederweid,49.513191,8.456391,,0
234505,Niederweid,49.513195,8.4566,,0
208606,Kaiser-Wilhelm-Str.,49.481669,8.44895,,0
208605,Kaiser-Wilhelm-Str.,49.481101,8.447622,,0
208602,Kaiser-Wilhelm-Str.,49.481364,8.448154,,0
730306,Kolpingstraße,49.486623,8.482793,,0
730305,Kolpingstraße,49.486724,8.482625,,0
249701,Markuskirche,49.464621,8.475596,,0
216106,Rosenwörthstraße,49.49687,8.37482,,0
242201,Hochuferstraße,49.50274,8.48772,,0
242202,Hochuferstraße,49.50325,8.48758,,0
216105,Rosenwörthstraße,49.49729,8.37428,,0
249201,Isarweg,49.449387,8.502564,,0
238337,MA Hauptbahnhof Süd,49.477215,8.469343,,0
249202,Isarweg,49.449107,8.503181,,0
695702,Untere Rödt,49.402157,8.647204,,0
752637,Rheinallee Nord,49.47656,8.45541,,0
256705,Sandhofen,49.541715,8.449787,,0
256701,Sandhofen,49.542136,8.449414,,0
206630,Berliner Platz,49.48111,8.45169,http://www.rnv-online.de/liniennetz/wichtige-umsteigepunkte.html,0
206633,Berliner Platz,49.481609,8.449919,http://www.rnv-online.de/liniennetz/wichtige-umsteigepunkte.html,0
206634,Berliner Platz,49.481686,8.450037,http://www.rnv-online.de/liniennetz/wichtige-umsteigepunkte.html,0
556311,Heddesheim Bahnhof,49.504812,8.594176,,0
257606,Kerschensteinersch.,49.546978,8.479458,,0
133801,Gaisbergstr.,49.406897,8.69352,,0
257605,Kerschensteinersch.,49.547036,8.479701,,0
554801,Alte Feuerwache,49.495633,8.47323,,0
554802,Alte Feuerwache,49.49614,8.47368,,0
554803,Alte Feuerwache,49.49612,8.47379,,0
554808,Alte Feuerwache,49.495821,8.472228,,0
207237,Ebertpark,49.48972,8.41732,,0
207901,LU Klinikum,49.490459,8.422764,,0
207902,LU Klinikum,49.490221,8.423052,,0
695903,Im Bosseldorn,49.38419,8.68148,,0
131401,Heidebuckelweg,49.450359,8.754428,,0
114504,Bierhelderhof,49.39029,8.70504,,0
131402,Heidebuckelweg,49.449826,8.754156,,0
114501,Bierhelderhof,49.390146,8.705116,,0
232905,Mülhauser Straße,49.438153,8.577985,,0
114502,Bierhelderhof,49.389881,8.705262,,0
82406,FT Altenheim,49.535901,8.360152,,0
256412,Krappmühlstraße,49.475312,8.481307,,0
114104,Bergfriedhof,49.395443,8.689928,,0
245007,Otto-Beck-Straße,49.481068,8.484228,,0
245006,Otto-Beck-Straße,49.480652,8.484905,,0
245005,Otto-Beck-Straße,49.480581,8.484215,,0
245008,Otto-Beck-Straße,49.481335,8.484288,,0
244206,Moselstraße,49.498832,8.483497,,0
244205,Moselstraße,49.498796,8.483617,,0
680606,Am Sandloch,49.44805,8.40867,,0
680605,Am Sandloch,49.448837,8.408226,,0
126901,Hertzstr.,49.366657,8.68487,,0
287506,Meßkircher Straße,49.461548,8.561832,,0
235105,Weidenwörth,49.517735,8.462955,,0
235107,Weidenwörth,49.51874,8.461921,,0
235106,Weidenwörth,49.517883,8.463009,,0
235108,Weidenwörth,49.518523,8.463299,,0
204905,Von-Kieffer-Straße,49.454842,8.400682,,0
204906,Von-Kieffer-Straße,49.454763,8.400701,,0
515205,Paul-Münch-Straße,49.475565,8.327641,,0
515206,Paul-Münch-Straße,49.475837,8.3276,,0
258206,Memeler Straße,49.544806,8.480949,,0
258205,Memeler Straße,49.544899,8.481045,,0
213401,Hoheneckenstraße,49.457178,8.426889,,0
213402,Hoheneckenstraße,49.456639,8.426623,,0
213405,Hoheneckenstraße,49.456669,8.426555,,0
213406,Hoheneckenstraße,49.457146,8.426946,,0
254302,Neuhofer Straße,49.435512,8.525654,,0
120502,G.-Mendel-Realschule,49.386896,8.666596,,0
120501,G.-Mendel-Realschule,49.386868,8.666587,,0
130201,Wieblingen Mitte,49.423532,8.645783,,0
130202,Wieblingen Mitte,49.423504,8.64628,,0
121962,Kirchheim Rathaus,49.377216,8.664965,,0
121961,Kirchheim Rathaus,49.377079,8.664599,,0
209561,Raschig,49.466309,8.44015,,0
209562,Raschig,49.465974,8.439649,,0
116902,Kohlhof Fachklinik,49.389572,8.735235,,0
116901,Kohlhof Fachklinik,49.389351,8.735114,,0
302511,Ulanenweg,49.467629,8.506081,,0
250805,Hafenpark,49.50997,8.46595,,0
250806,Hafenpark,49.51059,8.46717,,0
260305,Potsdamer Weg,49.510239,8.531318,,0
260306,Potsdamer Weg,49.510158,8.531713,,0
260301,Potsdamer Weg,49.508087,8.533196,,0
260302,Potsdamer Weg,49.508268,8.533467,,0
558805,Karl-Feuerstein-Str.,49.522271,8.487224,,0
204606,Königsbacher Straße,49.4623,8.40047,,0
204605,Königsbacher Straße,49.460727,8.401958,,0
236105,Käfertal Friedhof,49.514622,8.51862,,0
251602,Kopernikusstraße,49.478617,8.477351,,0
223105,Pasadenaallee,49.481385,8.436018,,0
558806,Karl-Feuerstein-Str.,49.522287,8.487414,,0
128362,Jägerhaus,49.415338,8.74724,,0
128361,Jägerhaus,49.415297,8.747884,,0
349606,MA Hochschule West,49.471668,8.479853,,0
235812,Bensheimer Straße,49.513954,8.527912,,0
235811,Bensheimer Straße,49.513305,8.526364,,0
302602,Gerd-Dehof-Platz,49.465625,8.510041,,0
302605,Gerd-Dehof-Platz,49.465662,8.508486,,0
121101,Königsberger Str.,49.384285,8.666024,,0
121102,Königsberger Str.,49.38426,8.666449,,0
198162,Pleikartsförster Str,49.383144,8.662716,,0
198161,Pleikartsförster Str,49.382585,8.662668,,0
118202,Posseltslust,49.384651,8.733453,,0
118201,Posseltslust,49.384631,8.73358,,0
121502,Obere Seegasse,49.377328,8.668881,,0
252208,Neuostheim,49.477218,8.523403,,0
203105,Friesenheim Ost,49.501083,8.420821,,0
203106,Friesenheim Ost,49.501392,8.421495,,0
203101,Friesenheim Ost,49.501428,8.421656,,0
203102,Friesenheim Ost,49.501799,8.421054,,0
133011,Gneisenaustraße Süd,49.406586,8.667384,,0
133012,Gneisenaustraße Süd,49.406598,8.66725,,0
236205,Speckweg,49.520639,8.498074,,0
285805,Böcklinstraße,49.466,8.44751,,0
248302,Dannstadter Straße,49.446039,8.509332,,0
248301,Dannstadter Straße,49.44634,8.50896,,0
814301,BH Möhl,49.47401,8.48714,,0
252207,Neuostheim,49.477356,8.523153,,0
236202,Speckweg,49.52106,8.49938,,0
264312,Wallstadt Ost,49.497288,8.553981,,0
264311,Wallstadt Ost,49.497506,8.553354,,0
614001,Quartieram Turm,49.382006,8.682125,,0
614002,Quartieram Turm,49.381944,8.682157,,0
641101,Mühltalstr.,49.43099,8.69783,,0
231805,Feudenheim Kreuz,49.485867,8.537066,,0
231806,Feudenheim Kreuz,49.486002,8.536663,,0
133301,Heiligenbergschule,49.423316,8.679029,,0
133302,Heiligenbergschule,49.42364,8.679706,,0
112002,Am Götzenberg,49.372022,8.701371,,0
132302,Neckarschule,49.419266,8.756813,,0
255505,Bartholomäuskirche,49.545651,8.446834,,0
112001,Am Götzenberg,49.372086,8.701572,,0
62206,Schillerstraße,49.442925,8.619783,,0
258701,Deutscher Hof,49.47131,8.55647,,0
687805,Inden Neugärten,49.478874,8.366037,,0
687806,Inden Neugärten,49.479129,8.366067,,0
384111,Viernh. Kapellenberg,49.529797,8.575185,,0
384112,Viernh. Kapellenberg,49.529778,8.576004,,0
211007,Val.-Bauer-Sdlg. Süd,49.476579,8.423769,,0
664806,Erich-Kästner-Straße,49.485941,8.368571,,0
109401,HITS,49.415042,8.736631,,0
752005,Walzmühle,49.477984,8.453902,,0
752006,Walzmühle,49.478042,8.453142,,0
263102,Zellstoff-Fabrik,49.531516,8.464839,,0
414630,Weinheim Alt. OEG-Bf,49.54971,8.66516,,0
414631,Weinheim Alt. OEG-Bf,49.549111,8.665147,,0
344401,Festplatz,49.430536,8.811391,,0
263101,Zellstoff-Fabrik,49.531218,8.465351,,0
246006,Sandgewann,49.509916,8.483536,,0
246005,Sandgewann,49.509982,8.483197,,0
212106,Maudacher Straße,49.461126,8.415736,,0
212105,Maudacher Straße,49.461268,8.415829,,0
225505,Albert-Haueisen-Ring,49.50365,8.383246,,0
225506,Albert-Haueisen-Ring,49.503687,8.383223,,0
237305,Käfertalschule,49.514475,8.515014,,0
237306,Käfertalschule,49.514231,8.515338,,0
218606,Heinz-Schifferd.-Str,49.506546,8.384703,,0
218605,Heinz-Schifferd.-Str,49.506619,8.384702,,0
640501,Bachlenz,49.430226,8.687966,,0
640502,Bachlenz,49.430358,8.687984,,0
238301,MA Hauptbahnhof Süd,49.477432,8.467781,,0
238302,MA Hauptbahnhof Süd,49.476886,8.467969,,0
238308,MA Hauptbahnhof Süd,49.477486,8.468371,,0
259506,Schlittweg,49.455858,8.543518,,0
259505,Schlittweg,49.455891,8.543745,,0
119002,Schloss,49.408909,8.712699,,0
119001,Schloss,49.408905,8.712812,,0
429002,Wilhelmsf. Autohalle,49.463112,8.763424,,0
242102,Herzogenriedstraße,49.508376,8.470672,,0
242101,Herzogenriedstraße,49.508769,8.470731,,0
242106,Herzogenriedstraße,49.508423,8.471474,,0
242105,Herzogenriedstraße,49.508458,8.471555,,0
234205,Kammerschleuse,49.508248,8.448254,,0
234206,Kammerschleuse,49.507917,8.448118,,0
77806,FT Feierabendhaus,49.537919,8.359089,,0
77805,FT Feierabendhaus,49.53737,8.3588,,0
158112,Großsachsen Bahnhof,49.514553,8.656851,,0
145708,S-Bf West-/Südstadt,49.398564,8.689382,,0
217406,Kurt-Schumacher-Str.,49.52584,8.39859,,0
158111,Großsachsen Bahnhof,49.514037,8.656707,,0
78806,FT Kugelfang,49.53635,8.37559,,0
78805,FT Kugelfang,49.53632,8.376762,,0
145701,S-Bf West-/Südstadt,49.398224,8.689376,,0
245104,Paradeplatz,49.487221,8.467501,http://www.rnv-online.de/liniennetz/wichtige-umsteigepunkte.html,0
245102,Paradeplatz,49.487078,8.465612,http://www.rnv-online.de/liniennetz/wichtige-umsteigepunkte.html,0
245103,Paradeplatz,49.487599,8.466639,http://www.rnv-online.de/liniennetz/wichtige-umsteigepunkte.html,0
245101,Paradeplatz,49.487676,8.466229,http://www.rnv-online.de/liniennetz/wichtige-umsteigepunkte.html,0
256401,Krappmühlstraße,49.475189,8.481274,,0
257105,Rastenburger Straße,49.550576,8.468441,,0
241802,MA Hauptfriedhof,49.490686,8.491289,,0
241801,MA Hauptfriedhof,49.490969,8.49114,,0
257106,Rastenburger Straße,49.550792,8.468393,,0
241806,MA Hauptfriedhof,49.490838,8.4908,,0
241805,MA Hauptfriedhof,49.491096,8.49128,,0
127604,Rohrbach Markt,49.380532,8.6883,,0
127605,Rohrbach Markt,49.380463,8.687162,,0
127606,Rohrbach Markt,49.380516,8.687336,,0
127607,Rohrbach Markt,49.38035,8.68789,,0
299961,Melacpass,49.392795,8.781851,,0
299962,Melacpass,49.392877,8.781468,,0
114404,Betriebshof,49.407513,8.674832,,0
114405,Betriebshof,49.407956,8.675556,,0
114406,Betriebshof,49.407892,8.676456,,0
114407,Betriebshof,49.407622,8.674827,,0
131504,Kleingemünder Str.,49.417531,8.762656,,0
114403,Betriebshof,49.407427,8.674682,,0
239306,Am Oberen Luisenpark,49.480255,8.493561,,0
239305,Am Oberen Luisenpark,49.480416,8.493579,,0
114409,Betriebshof,49.40712,8.67483,,0
209405,Fieskostraße,49.489481,8.372925,,0
263805,Wallstadtschule,49.497607,8.548777,,0
427202,HD Hauptbahnhof Süd,49.401783,8.674225,,0
107901,Im Hofert,49.412068,8.769001,,0
348411,Zentgrafenstraße,49.476856,8.657703,,0
116804,Seegarten,49.40699,8.69098,,0
253905,Martinistraße,49.443263,8.527095,,0
116803,Seegarten,49.40716,8.69221,,0
253906,Martinistraße,49.443144,8.52677,,0
130212,Wieblingen Mitte,49.423362,8.646117,,0
130211,Wieblingen Mitte,49.423843,8.645849,,0
244505,Neckarspitze,49.50252,8.445704,,0
261402,Erlöserkirche,49.52617,8.4957,,0
258305,Freiberger Ring,49.509338,8.540649,,0
608005,Am Salzkai,49.496739,8.460467,,0
235005,Muskatormühle,49.531616,8.449601,,0
302702,SAP Arena Süd,49.462804,8.517126,,0
131902,Löwen,49.444105,8.75371,,0
347911,Schriesheim Bahnhof,49.471778,8.660382,,0
215805,Notwende,49.50901,8.37624,,0
347912,Schriesheim Bahnhof,49.472317,8.660158,,0
233905,Einsteinstraße,49.519362,8.459851,,0
13401,Bad Dürkheim Ost,49.463453,8.185246,,0
13402,Bad Dürkheim Ost,49.46342,8.18425,,0
600705,Verbindungskanal,49.500923,8.451646,,0
210505,Shellhaus,49.470011,8.446341,,0
210506,Shellhaus,49.470378,8.446893,,0
130102,Maltesergasse,49.428925,8.645793,,0
130101,Maltesergasse,49.42895,8.645697,,0
212406,Achtmorgenstraße,49.465819,8.41932,,0
250905,Industriestraße,49.50567,8.45995,,0
250906,Industriestraße,49.50646,8.46103,,0
113610,Hans-Thoma-Platz,49.42688,8.68307,,0
113611,Hans-Thoma-Platz,49.427424,8.682977,,0
113612,Hans-Thoma-Platz,49.42799,8.6833,,0
204407,Hochfeldstraße,49.465882,8.408555,,0
260205,Magdeburger Straße,49.513859,8.54703,,0
116620,S-Bf Altstadt,49.4145,8.71848,,0
427404,Gadamerplatz,49.4033,8.66871,,0
427401,Gadamerplatz,49.403815,8.667948,,0
427403,Gadamerplatz,49.403374,8.668322,,0
427402,Gadamerplatz,49.40411,8.668357,,0
236206,Speckweg,49.520651,8.497941,,0
251501,Harrlach,49.478144,8.506398,,0
61906,Edingen Bahnhof,49.441853,8.615289,,0
61901,Edingen Bahnhof,49.441542,8.614477,,0
251506,Harrlach,49.478247,8.506792,,0
236201,Speckweg,49.5206,8.49903,,0
246906,TÜV,49.4978,8.50431,,0
246905,TÜV,49.497711,8.504414,,0
204105,Schwalbenweg,49.493853,8.417804,,0
204106,Schwalbenweg,49.49332,8.41858,,0
113501,Kapellenweg,49.42473,8.68708,,0
112902,Jaspersstr.,49.361354,8.703439,,0
112901,Jaspersstr.,49.361005,8.703271,,0
121001,Pleikartsförster Hof,49.390003,8.660831,,0
121002,Pleikartsförster Hof,49.389894,8.66085,,0
124502,Hans-Bunte-Str.,49.407093,8.640433,,0
124501,Hans-Bunte-Str.,49.407057,8.640462,,0
714205,Ad.-Diesterweg-Str.,49.489829,8.365449,,0
301401,Schützenhausbrücke,49.394478,8.79059,,0
301402,Schützenhausbrücke,49.394578,8.791756,,0
264305,Wallstadt Ost,49.497528,8.554532,,0
252402,Schwindstraße,49.478402,8.518961,,0
252401,Schwindstraße,49.4784,8.518294,,0
302701,SAP Arena Süd,49.463062,8.516469,,0
125901,Steinhofweg,49.394154,8.646195,,0
249951,Hochschule MA,49.469975,8.484007,,0
211906,Krappstraße,49.455056,8.372928,,0
211905,Krappstraße,49.455296,8.372542,,0
249952,Hochschule MA,49.469421,8.48386,,0
285906,Parkinsel,49.46617,8.45179,,0
69602,Kirchheimer Str.,49.39926,8.62656,,0
203206,Hagellochstraße,49.49914,8.416089,,0
614101,Fabrikstr.,49.380068,8.6821,,0
614102,Fabrikstr.,49.380007,8.682172,,0
281002,Maxdorf,49.480157,8.293832,,0
248205,Ladenburger Straße,49.51218,8.520544,,0
682501,Am Zapfenberg,49.430669,8.692581,,0
132202,Neckarhelle,49.417341,8.749291,,0
132201,Neckarhelle,49.417464,8.748146,,0
112701,Emmertsgrund Endst.,49.359356,8.703884,,0
254807,Rotterdamer S. Süd,49.421403,8.514587,,0
112702,Emmertsgrund Endst.,49.358919,8.704417,,0
254808,Rotterdamer S. Süd,49.422223,8.514937,,0
414621,Weinheim Alt. OEG-Bf,49.54923,8.66504,,0
414620,Weinheim Alt. OEG-Bf,49.54817,8.66471,,0
676405,Käfertaler Straße,49.502573,8.502196,,0
239805,Bibienastraße,49.49449,8.48916,,0
239806,Bibienastraße,49.494577,8.487982,,0
676406,Käfertaler Straße,49.502277,8.501491,,0
239801,Bibienastraße,49.494704,8.488359,,0
239802,Bibienastraße,49.49455,8.48878,,0
211705,Maudach Gemeindehaus,49.455204,8.383086,,0
211706,Maudach Gemeindehaus,49.455139,8.382931,,0
144602,Hilsenhain Dell,49.513695,8.777158,,0
263306,Amorbacher Straße,49.497998,8.542939,,0
233305,Lilli-Gräber-Halle,49.442499,8.569138,,0
242006,Konrad-Duden-Schule,49.440487,8.52326,,0
242005,Konrad-Duden-Schule,49.440532,8.523013,,0
212362,Maudacher Bruch,49.456684,8.397968,,0
109301,Gutleuthofweg,49.414228,8.764234,,0
344501,Lindenbach,49.420508,8.806615,,0
218706,Pfingstweide Zentrum,49.540466,8.388932,,0
429502,Schriesheimer Hof,49.470321,8.754297,,0
218705,Pfingstweide Zentrum,49.54042,8.3888,,0
640401,Tiefburg,49.427719,8.686074,,0
640402,Tiefburg,49.42769,8.68559,,0
212605,Friedenspark,49.484518,8.437035,,0
126101,Kranichweg/Stotz,49.40226,8.64247,,0
126102,Kranichweg/Stotz,49.402164,8.642077,,0
212606,Friedenspark,49.484383,8.437357,,0
126104,Kranichweg/Stotz,49.401375,8.641304,,0
126106,Kranichweg/Stotz,49.40237,8.643504,,0
129601,Käfertaler Str.,49.430156,8.644835,,0
429501,Schriesheimer Hof,49.470209,8.754447,,0
259406,Seckenheim Rathaus,49.466816,8.563643,,0
259407,Seckenheim Rathaus,49.466774,8.563747,,0
238606,Luzenberg,49.5167,8.475561,http://www.rnv-online.de/liniennetz/wichtige-umsteigepunkte.html,0
119102,Kühruhweg,49.393837,8.708661,,0
260705,Warnemünder Weg,49.507843,8.537063,,0
119101,Kühruhweg,49.393783,8.708552,,0
429102,Kettenschmiede,49.468871,8.789011,,0
220106,Am Hüttengraben,49.481239,8.353573,,0
220105,Am Hüttengraben,49.481371,8.35398,,0
429101,Kettenschmiede,49.468765,8.789719,,0
234305,Rotterdamer S. Mitte,49.425847,8.51421,,0
144802,Lampenhain Rathaus,49.498196,8.765592,,0
110401,Hirtenaue,49.426333,8.759777,,0
110402,Hirtenaue,49.426304,8.759787,,0
214405,Damaschkestraße,49.472706,8.403866,,0
254301,Neuhofer Straße,49.435062,8.526035,,0
217706,Karl-Dillinger-Str.,49.501448,8.380463,,0
217705,Karl-Dillinger-Str.,49.501439,8.38056,,0
241206,Gewerkschaftshaus,49.488384,8.475864,,0
259312,Pforzheimer Straße,49.47329,8.55056,,0
113004,Mombertplatz,49.369353,8.705241,http://www.rnv-online.de/liniennetz/wichtige-umsteigepunkte.html,0
683805,Mühlaustraße,49.529102,8.384191,,0
256506,Sandhofer Weg,49.558647,8.447984,,0
389405,SAP Arena S-Bahnhof,49.460296,8.516356,,0
389406,SAP Arena S-Bahnhof,49.460266,8.516291,,0
389401,SAP Arena S-Bahnhof,49.459961,8.517035,,0
389402,SAP Arena S-Bahnhof,49.459697,8.517626,,0
127502,Rastatter Str.,49.373966,8.678691,,0
127501,Rastatter Str.,49.37367,8.67943,,0
286506,Schwanthalerplatz,49.46928,8.45556,,0
241905,Hauptgüterbahnhof,49.500756,8.446979,,0
215701,Mannheimer Tor,49.49087,8.378972,,0
215702,Mannheimer Tor,49.491115,8.378778,,0
240506,Jungbuschschule,49.495558,8.459135,,0
239206,Sporwörthplatz,49.442904,8.519059,,0
239205,Sporwörthplatz,49.442819,8.518898,,0
413612,Stahlbad,49.544968,8.649089,,0
254805,Rotterdamer S. Süd,49.421322,8.515406,,0
554002,Franz-Sigel-Straße,49.462256,8.477205,,0
554005,Franz-Sigel-Straße,49.462982,8.477025,,0
255002,Sandrain,49.44277,8.51638,,0
263906,Wallstadt Sportanl.,49.500639,8.542474,,0
121902,Kirchheim Rathaus,49.377735,8.666265,,0
121905,Kirchheim Rathaus,49.377533,8.665768,,0
121904,Kirchheim Rathaus,49.377335,8.665396,,0
121907,Kirchheim Rathaus,49.377464,8.666978,,0
121909,Kirchheim Rathaus,49.377132,8.664965,,0
119801,Universitätsplatz,49.411055,8.705826,,0
254806,Rotterdamer S. Süd,49.420693,8.514664,,0
244404,Nationaltheater,49.487705,8.478459,,0
244405,Nationaltheater,49.487779,8.476957,,0
244406,Nationaltheater,49.487614,8.478189,,0
244407,Nationaltheater,49.48785,8.478192,,0
339805,Lincolnallee,49.520546,8.532622,,0
244403,Nationaltheater,49.487657,8.476747,,0
116701,MPI Kernphysik,49.388892,8.707654,,0
116702,MPI Kernphysik,49.38903,8.707374,,0
555305,Schönau,49.546852,8.474664,,0
235306,Am Kuhbuckel,49.525974,8.511043,,0
235305,Am Kuhbuckel,49.525944,8.51102,,0
203905,Saarbrücker Straße,49.492933,8.404986,,0
203906,Saarbrücker Straße,49.492857,8.405131,,0
80606,FT Wormser Tor,49.53814,8.35321,,0
257905,Sachsenstraße,49.50732,8.54564,,0
257906,Sachsenstraße,49.507427,8.546428,,0
205205,Volkshaus,49.462993,8.409775,,0
205206,Volkshaus,49.462821,8.40989,,0
62912,Neu-Ed. Gewerbegeb.,49.454317,8.591156,,0
246805,Ida-Dehmel-Ring,49.504691,8.531151,,0
603105,Innerer Heckweg,49.459265,8.563189,,0
253006,Hallenweg,49.448117,8.53286,,0
231605,Hölderlinstraße,49.496295,8.52965,,0
239905,Bonadiesstraße,49.504818,8.449972,,0
130002,Finanzamt,49.422187,8.642487,,0
130001,Finanzamt,49.422106,8.642509,,0
146702,Bärsbach Ort,49.504889,8.767358,,0
232206,Hedwig-Laudien-Ring,49.483776,8.364746,,0
125602,Marktstr.,49.4037,8.6478,,0
125603,Marktstr.,49.40358,8.647099,,0
239906,Bonadiesstraße,49.504797,8.449881,,0
300362,Stadttor,49.392164,8.801483,,0
300361,Stadttor,49.391631,8.801091,,0
122904,Jahnstr.,49.412675,8.675889,,0
122905,Jahnstr.,49.412797,8.676648,,0
122902,Jahnstr.,49.413158,8.676683,,0
122903,Jahnstr.,49.412869,8.67547,,0
214705,Am Weidenschlag,49.50572,8.37592,,0
256108,Karl-Schweizer-Park,49.548861,8.447066,,0
216601,Zum Guten Hirten,49.48815,8.3879,,0
216602,Zum Guten Hirten,49.488341,8.386845,,0
427501,Eppelheimer Terrasse,49.405392,8.659288,,0
427502,Eppelheimer Terrasse,49.4052,8.6597,,0
188901,Kurpfalz-Centrum,49.34787,8.689619,,0
188902,Kurpfalz-Centrum,49.34825,8.68937,,0
260106,Im Wohlbühl,49.509383,8.53024,,0
260105,Im Wohlbühl,49.509009,8.529858,,0
204005,Schopenhauerstraße,49.4965,8.42673,,0
134101,Rombachweg Süd,49.413404,8.738424,,0
587201,Schul/Sportzentrum,49.442855,8.809293,,0
113603,Hans-Thoma-Platz,49.427369,8.68305,,0
204001,Schopenhauerstraße,49.496743,8.426915,,0
204002,Schopenhauerstraße,49.497025,8.426857,,0
62105,Edingen Rathaus,49.447228,8.613527,,0
236306,Habichtplatz,49.51301,8.508274,,0
236305,Habichtplatz,49.512942,8.508344,,0
251406,Am Schäferstock,49.475063,8.503332,,0
62106,Edingen Rathaus,49.447564,8.613064,,0
202505,Im Zinkig,49.524595,8.385986,,0
251405,Am Schäferstock,49.474883,8.50423,,0
112802,Forum,49.36408,8.705679,,0
112801,Forum,49.364086,8.70555,,0
641001,Bahofweg,49.431522,8.701038,,0
600805,Leoniweg,49.510601,8.492,,0
429702,Wilhelmshöhe,49.468173,8.75819,,0
252506,Rheinau Bahnhof,49.424114,8.535505,,0
252505,Rheinau Bahnhof,49.424221,8.535325,,0
211806,Kärntner Straße,49.457198,8.403975,,0
211805,Kärntner Straße,49.456941,8.404059,,0
243505,Lortzingstraße,49.497244,8.467851,,0
243506,Lortzingstraße,49.497285,8.467653,,0
269305,Storchenstraße,49.501797,8.550438,,0
264206,Hansastraße,49.509244,8.468399,,0
252502,Rheinau Bahnhof,49.424145,8.53514,,0
242902,Luisenp./Technoseum,49.478581,8.496506,,0
242901,Luisenp./Technoseum,49.478978,8.495746,,0
242906,Luisenp./Technoseum,49.47868,8.495992,,0
242905,Luisenp./Technoseum,49.478865,8.496303,,0
203306,Lagewiesenstraße,49.493616,8.41115,,0
271001,H.-Gutzmann-Schule,49.52283,8.50078,,0
271002,H.-Gutzmann-Schule,49.52322,8.50128,,0
203305,Lagewiesenstraße,49.493611,8.410396,,0
108401,Sportplatz,49.410784,8.771866,,0
410511,Blumenstraße,49.544621,8.63763,,0
410512,Blumenstraße,49.544518,8.638532,,0
252212,Neuostheim,49.477471,8.52333,,0
252211,Neuostheim,49.477796,8.522683,,0
129901,Lerchenbuckel,49.416152,8.653555,,0
129902,Lerchenbuckel,49.416815,8.65326,,0
640701,Heiligenbergstr.,49.429706,8.69381,,0
252501,Rheinau Bahnhof,49.424534,8.534723,,0
132501,Rainweg,49.430151,8.746738,,0
254905,Ruhrorter Straße,49.421425,8.52063,,0
254906,Ruhrorter Straße,49.421478,8.519132,,0
62005,Pfälzer Hof,49.450846,8.609087,,0
207201,Ebertpark,49.489925,8.417615,,0
62006,Pfälzer Hof,49.450624,8.609392,,0
122302,Alte Brücke Nord,49.415263,8.708903,,0
122301,Alte Brücke Nord,49.415282,8.709199,,0
603106,Innerer Heckweg,49.458629,8.562913,,0
144702,Hilsenhain Ort,49.512033,8.771466,,0
263006,Waldstraße,49.528122,8.488709,,0
263005,Waldstraße,49.528103,8.48852,,0
233205,Rotterdamer S. Nord,49.427785,8.513912,,0
263001,Waldstraße,49.52827,8.49014,,0
245128,Paradeplatz,49.48787,8.465984,http://www.rnv-online.de/liniennetz/wichtige-umsteigepunkte.html,0
259412,Seckenheim Rathaus,49.46683,8.56345,,0
242701,Kurpfalzbrücke,49.493709,8.469346,,0
242702,Kurpfalzbrücke,49.493522,8.470124,,0
117601,Molkenkur,49.406925,8.715117,,0
245437,Bäckerweg,49.505051,8.506938,,0
253105,Essener Straße,49.421219,8.508221,,0
344201,Pflug,49.465428,8.804379,,0
679101,Ringstr.,49.402897,8.681129,,0
126202,Baden-Badener Straße,49.376722,8.682425,,0
241002,Carl-Benz-Straße MA,49.499829,8.471443,,0
679102,Ringstr.,49.40379,8.68219,,0
302812,Technoseum Süd,49.475814,8.494106,,0
241006,Carl-Benz-Straße MA,49.499325,8.471618,,0
214605,Adolf-Kolping-Straße,49.493327,8.363323,,0
302811,Technoseum Süd,49.476091,8.493556,,0
295106,Besselstraße,49.450317,8.51615,,0
127402,Ortenauer Str.,49.376861,8.68779,,0
127403,Ortenauer Str.,49.377738,8.687328,,0
127401,Ortenauer Str.,49.376261,8.687761,,0
259301,Pforzheimer Straße,49.47354,8.54969,,0
119604,Altes Hallenbad,49.40839,8.68811,,0
308401,Hatschekstr.,49.363136,8.686141,,0
119603,Altes Hallenbad,49.40842,8.68851,,0
130902,Fürstendamm,49.427964,8.749537,,0
130901,Fürstendamm,49.42863,8.749533,,0
208101,LU Hauptfriedhof,49.483946,8.424069,,0
208102,LU Hauptfriedhof,49.484079,8.423289,,0
117801,Neckarspitze,49.410108,8.663931,,0
117802,Neckarspitze,49.409812,8.664478,,0
82902,Lutherstr.,49.417284,8.690867,,0
260911,Vogelstang West,49.50656,8.53113,,0
260912,Vogelstang West,49.50618,8.53187,,0
82901,Lutherstr.,49.417181,8.691184,,0
247612,Weberstraße,49.476492,8.485735,,0
170001,Medizinische Klinik,49.414617,8.666364,,0
217602,Oppau Süd,49.51245,8.40783,,0
217601,Oppau Süd,49.51254,8.40795,,0
680905,Berufsbildungszentr.,49.475707,8.407648,,0
680906,Berufsbildungszentr.,49.475834,8.407592,,0
241752,MA Hauptbahnhof,49.47947,8.47089,http://www.rnv-online.de/liniennetz/wichtige-umsteigepunkte.html,0
241751,MA Hauptbahnhof,49.47984,8.47062,http://www.rnv-online.de/liniennetz/wichtige-umsteigepunkte.html,0
249108,Im Morchhof,49.455902,8.505393,,0
128403,S-Bf Orthopädie,49.409889,8.774355,,0
249106,Im Morchhof,49.45593,8.504538,,0
250101,Rheingoldhalle,49.449923,8.469405,,0
249105,Im Morchhof,49.455737,8.505358,,0
214805,Oggersheim Bahnhof,49.492912,8.381379,,0
240401,Exerzierplatz,49.503161,8.497362,,0
240402,Exerzierplatz,49.503613,8.498364,,0
215605,Im Schelmenherschel,49.500984,8.375452,,0
215205,Oggersheim Friedhof,49.497184,8.367418,,0
240006,Bunsenstraße,49.501906,8.455985,,0
231306,Andreas-Hofer-Straße,49.490489,8.525465,,0
231305,Andreas-Hofer-Straße,49.490432,8.525503,,0
554306,Theresienkrankenhaus,49.489112,8.480514,,0
554305,Theresienkrankenhaus,49.490029,8.480683,,0
119902,Volkshochschule,49.40783,8.68077,,0
114607,Bismarckplatz,49.409732,8.692893,http://www.rnv-online.de/liniennetz/wichtige-umsteigepunkte.html,0
119901,Volkshochschule,49.40787,8.68044,,0
114602,Bismarckplatz,49.409451,8.692983,http://www.rnv-online.de/liniennetz/wichtige-umsteigepunkte.html,0
114601,Bismarckplatz,49.409861,8.693199,http://www.rnv-online.de/liniennetz/wichtige-umsteigepunkte.html,0
209205,Ebereschenweg,49.466653,8.401093,,0
263401,Kiesäcker,49.49904,8.536564,,0
121801,Ilse-Krall-Str.,49.38626,8.67338,,0
121802,Ilse-Krall-Str.,49.38664,8.67353,,0
121803,Ilse-Krall-Str.,49.386478,8.673243,,0
121804,Ilse-Krall-Str.,49.385212,8.673135,,0
299301,Friedrich-Ebert-Str.,49.388659,8.803568,,0
299302,Friedrich-Ebert-Str.,49.388261,8.803633,,0
125101,Im Schaffner,49.398273,8.642259,,0
116601,S-Bf Altstadt,49.41507,8.720137,,0
116602,S-Bf Altstadt,49.415005,8.720013,,0
126103,Kranichweg/Stotz,49.402233,8.641874,,0
129602,Käfertaler Str.,49.430279,8.644778,,0
249806,Matthäuskirche,49.45391,8.488521,,0
249805,Matthäuskirche,49.453984,8.488052,,0
205301,Ammoniakstraße,49.504922,8.41067,,0
205302,Ammoniakstraße,49.505373,8.410244,,0
205305,Ammoniakstraße,49.505276,8.410485,,0
205306,Ammoniakstraße,49.50495,8.41034,,0
555005,Neumarkt,49.498822,8.467771,,0
126107,Kranichweg/Stotz,49.401356,8.641322,,0
235206,ABB Tor 8,49.508919,8.496882,,0
555001,Neumarkt,49.498925,8.467345,,0
235205,ABB Tor 8,49.509359,8.496546,,0
204306,Abteistraße,49.467773,8.4073,,0
204305,Abteistraße,49.468303,8.40703,,0
134001,Villa Bosch,49.415441,8.734503,,0
587502,Vorderheubach Mitte,49.489896,8.776957,,0
660005,Industrieg. Am Römig,49.486046,8.320666,,0
246705,Teufelsbrücke,49.49453,8.457124,,0
232306,Am Rheinauer See,49.416267,8.529959,,0
232305,Am Rheinauer See,49.416298,8.530005,,0
62905,Neu-Ed. Gewerbegeb.,49.453656,8.591344,,0
62906,Neu-Ed. Gewerbegeb.,49.454357,8.59264,,0
62907,Neu-Ed. Gewerbegeb.,49.454263,8.592707,,0
62901,Neu-Ed. Gewerbegeb.,49.454268,8.591368,,0
674005,Londoner Ring,49.543816,8.389412,,0
62908,Neu-Ed. Gewerbegeb.,49.453651,8.591103,,0
249605,Neckarau Marktplatz,49.453052,8.491895,,0
133111,Berufsschule,49.408579,8.660445,,0
133112,Berufsschule,49.40842,8.661295,,0
249606,Neckarau Marktplatz,49.453218,8.491733,,0
260005,Chemnitzer Straße,49.511263,8.551625,,0
221909,BASF Süd,49.49242,8.436064,,0
349506,Glücksteinallee,49.47448,8.474154,,0
251305,Teufelsloch,49.472873,8.501385,,0
251306,Teufelsloch,49.472816,8.50133,,0
202406,Edigheim Kirche,49.52971,8.392655,,0
102301,Forstquelle,49.38135,8.70632,,0
202405,Edigheim Kirche,49.530136,8.392126,,0
272901,Jugendverkehrsschule,49.51138,8.49394,,0
272902,Jugendverkehrsschule,49.51179,8.49349,,0
123312,Kußmaulstr.,49.419003,8.69055,,0
123311,Kußmaulstr.,49.418537,8.690765,,0
238806,Diffenebrücke,49.516193,8.472346,,0
238805,Diffenebrücke,49.516096,8.471991,,0
219705,Rheingönheim,49.443409,8.418998,,0
243606,Ludolf-Krehl-Straße,49.497218,8.492184,,0
243605,Ludolf-Krehl-Straße,49.497309,8.492407,,0
252209,Neuostheim,49.477552,8.522486,,0
252205,Neuostheim,49.477548,8.52254,,0
115701,Fr.-Ebert-Platz,49.40805,8.69986,,0
115702,Fr.-Ebert-Platz,49.408356,8.698612,,0
252206,Neuostheim,49.477447,8.52288,,0
252201,Neuostheim,49.477687,8.522575,,0
252202,Neuostheim,49.477418,8.523299,,0
118501,Rheinstraße HD,49.389877,8.690347,,0
118502,Rheinstraße HD,49.389996,8.690349,,0
336801,Rohrbach NVZ,49.38341,8.67927,,0
111601,Klingenweg,49.422715,8.764159,,0
111602,Klingenweg,49.422574,8.76408,,0
113605,Hans-Thoma-Platz,49.427977,8.684162,,0
284702,SAP Arena,49.463313,8.518957,,0
284701,SAP Arena,49.464911,8.520468,,0
600405,Mensaam Schloss,49.48657,8.4592,,0
129801,E.-v.-Thadden-Platz,49.424113,8.649017,,0
129802,E.-v.-Thadden-Platz,49.42398,8.649182,,0
126302,Eichendorffplatz,49.383637,8.690462,,0
126303,Eichendorffplatz,49.383243,8.690392,,0
212405,Achtmorgenstraße,49.466134,8.419248,,0
383511,Walter-Gropius-Allee,49.539144,8.595436,,0
383512,Walter-Gropius-Allee,49.53928,8.59624,,0
308705,Washingtonstraße,49.517803,8.528705,,0
132401,Neuer Weg,49.417451,8.752939,,0
132402,Neuer Weg,49.417357,8.752501,,0
258401,Schönauschule,49.54364,8.47411,,0
258402,Schönauschule,49.544235,8.474136,,0
103301,Zgh. Altes Rathaus,49.417929,8.759022,,0
234306,Rotterdamer S. Mitte,49.424923,8.514381,,0
614401,Universitäts-Campus,49.41342,8.670481,,0
815306,Integr. Gesamtschule,49.484492,8.364175,,0
429752,Wilhelmshöhe,49.468174,8.758263,,0
302805,Technoseum Süd,49.475858,8.493539,,0
302806,Technoseum Süd,49.476018,8.493521,,0
207306,Feierabendhaus,49.492752,8.427921,,0
207305,Feierabendhaus,49.492656,8.42786,,0
234106,Max-Born-Straße,49.521013,8.455084,,0
234105,Max-Born-Straße,49.521378,8.453797,,0
130801,Köpfel,49.423122,8.742828,,0
283005,Feuerwache Nord,49.517362,8.508748,,0
283006,Feuerwache Nord,49.51752,8.508275,,0
62506,Neckarhausen Ost,49.45888,8.606452,,0
262505,Neueichwaldstraße,49.530304,8.499921,,0
408411,Lützelsachsen Bergs.,49.526586,8.656941,,0
413611,Stahlbad,49.545116,8.649269,,0
262506,Neueichwaldstraße,49.530305,8.500246,,0
253005,Hallenweg,49.448886,8.535053,,0
109101,Bärenbach Süd,49.41351,8.775503,,0
241106,Gesamtsch. Herzogenr.,49.508389,8.477211,,0
241105,Gesamtsch. Herzogenr.,49.508387,8.476309,,0
247601,Weberstraße,49.476475,8.486068,,0
220636,Am Sportplatz,49.475719,8.335659,,0
259205,Zähringer Straße,49.462143,8.560389,,0
259206,Zähringer Straße,49.463635,8.559936,,0
212005,Maudach,49.45618,8.367971,,0
286705,Rheingönh. Gemeindeh,49.444267,8.415584,,0
286706,Rheingönh. Gemeindeh,49.444291,8.415547,,0
253311,Holbeinstraße,49.481483,8.511843,,0
253312,Holbeinstraße,49.48088,8.513779,,0
255606,Blumenauer Weg,49.555514,8.448225,,0
106201,Gutleuthofhang,49.412749,8.766652,,0
124201,Studentenwohnheim,49.418785,8.663109,,0
124202,Studentenwohnheim,49.418729,8.662644,,0
680805,Karlsbader Straße,49.47703,8.40402,,0
680806,Karlsbader Straße,49.476954,8.404334,,0
208001,LU Hauptbahnhof,49.478635,8.434991,http://www.rnv-online.de/liniennetz/wichtige-umsteigepunkte.html,0
208002,LU Hauptbahnhof,49.479203,8.434937,http://www.rnv-online.de/liniennetz/wichtige-umsteigepunkte.html,0
208003,LU Hauptbahnhof,49.478784,8.435322,http://www.rnv-online.de/liniennetz/wichtige-umsteigepunkte.html,0
208005,LU Hauptbahnhof,49.4787,8.434627,http://www.rnv-online.de/liniennetz/wichtige-umsteigepunkte.html,0
208006,LU Hauptbahnhof,49.478499,8.434667,http://www.rnv-online.de/liniennetz/wichtige-umsteigepunkte.html,0
208007,LU Hauptbahnhof,49.479496,8.435214,http://www.rnv-online.de/liniennetz/wichtige-umsteigepunkte.html,0
128502,Rombachweg,49.415732,8.742598,,0
259111,Seckenheim OEG-Bf.,49.462242,8.569489,,0
259112,Seckenheim OEG-Bf.,49.461836,8.569998,,0
128501,Rombachweg,49.41576,8.742085,,0
260906,Vogelstang West,49.507434,8.531553,,0
260905,Vogelstang West,49.507025,8.531727,,0
260902,Vogelstang West,49.506541,8.532063,,0
260901,Vogelstang West,49.50603,8.532033,,0
260908,Vogelstang West,49.50582,8.53328,,0
255905,Füllenweg,49.562158,8.448643,,0
117761,Nansenstr.,49.389881,8.685997,,0
554205,Kunsthalle,49.482505,8.472306,http://www.rnv-online.de/liniennetz/wichtige-umsteigepunkte.html,0
117762,Nansenstr.,49.389952,8.686187,,0
209305,Pfalzbau,49.480154,8.445778,,0
209306,Pfalzbau,49.48026,8.44599,,0
209302,Pfalzbau,49.48002,8.44544,,0
231206,Am Aubuckel,49.488511,8.51933,,0
231205,Am Aubuckel,49.488625,8.518119,,0
554206,Kunsthalle,49.482336,8.472818,http://www.rnv-online.de/liniennetz/wichtige-umsteigepunkte.html,0
263402,Kiesäcker,49.498917,8.536587,,0
812705,Leuschnerstraße,49.495165,8.423524,,0
62805,Ahornstraße,49.445161,8.580919,,0
210805,Südwest-Stadion,49.472525,8.439848,,0
210804,Südwest-Stadion,49.4723,8.43897,,0
210806,Südwest-Stadion,49.472124,8.439684,,0
128601,Teufelskanzelweg,49.417137,8.73171,,0
238206,Amselstraße,49.545908,8.459196,,0
244606,Neckarstadt West,49.503656,8.460684,,0
244607,Neckarstadt West,49.502838,8.459882,,0
244605,Neckarstadt West,49.503882,8.460637,,0
65801,Ellerstadt West,49.462578,8.254881,,0
244601,Neckarstadt West,49.50289,8.459935,,0
249909,Hochschule MA,49.46822,8.48338,,0
78205,FT Hallenbad,49.535,8.36283,,0
78206,FT Hallenbad,49.5352,8.36171,,0
235505,Äußere Wingertstraße,49.51641,8.511525,,0
235506,Äußere Wingertstraße,49.516165,8.51186,,0
209016,Marienkirche,49.485493,8.429863,,0
204206,Sternstraße,49.495932,8.415513,,0
204207,Sternstraße,49.495404,8.415699,,0
204205,Sternstraße,49.495762,8.414865,,0
202305,Deichstraße,49.529381,8.386383,,0
129101,Wieblingen Nord,49.432663,8.641976,,0
129102,Wieblingen Nord,49.432688,8.642107,,0
129104,Wieblingen Nord,49.432807,8.641996,,0
246607,Tattersall,49.481559,8.475188,http://www.rnv-online.de/liniennetz/wichtige-umsteigepunkte.html,0
113801,Alois-Link-Platz,49.400052,8.691376,,0
113802,Alois-Link-Platz,49.400223,8.69134,,0
62505,Neckarhausen Ost,49.460212,8.605771,,0
232405,Talstraße,49.495239,8.524788,,0
232406,Talstraße,49.495178,8.524839,,0
232401,Talstraße,49.495323,8.524617,,0
232402,Talstraße,49.495341,8.525015,,0
280706,IKEA/Scharhof,49.556801,8.444857,,0
243706,Zielstraße,49.505486,8.500204,,0
243705,Zielstraße,49.50577,8.50002,,0
264005,Wallstadt Wasserturm,49.499258,8.544324,,0
234806,Rheinrottstraße,49.511889,8.454616,,0
234805,Rheinrottstraße,49.511677,8.454399,,0
714011,Großsachsen Süd,49.508738,8.656045,,0
665005,Oderstraße,49.487748,8.35163,,0
714012,Großsachsen Süd,49.509324,8.65596,,0
252012,Maimarkt,49.468451,8.522054,,0
273406,Robert-Lauth-Straße,49.509093,8.383026,,0
273405,Robert-Lauth-Straße,49.509202,8.383115,,0
385112,Viernheim Bahnhof,49.535674,8.583278,,0
385111,Viernheim Bahnhof,49.53534,8.5825,,0
243812,Marktplatz,49.489604,8.468009,,0
237906,Zäher Wille,49.521556,8.494667,,0
237905,Zäher Wille,49.521708,8.494071,,0
243811,Marktplatz,49.489214,8.467565,,0
213706,Knappenwegstraße,49.463954,8.418683,,0
252305,Carl-Benz-Stadion,49.477971,8.50199,,0
252306,Carl-Benz-Stadion,49.477731,8.502451,,0
252302,Carl-Benz-Stadion,49.47783,8.50225,,0
301905,Taylor Nord,49.519241,8.553726,,0
136401,Peterstaler Str.,49.43475,8.749271,,0
136402,Peterstaler Str.,49.434626,8.749092,,0
111701,Karl-Christ-Str.,49.421159,8.760893,,0
111702,Karl-Christ-Str.,49.421171,8.760858,,0
239505,Am Friedrichsplatz,49.482789,8.479239,,0
239506,Am Friedrichsplatz,49.482488,8.47909,,0
255001,Sandrain,49.44358,8.51479,,0
118401,Rathaus-Bergbahn,49.411457,8.711941,,0
118402,Rathaus-Bergbahn,49.411213,8.711392,,0
126401,Englerstr.,49.36696,8.682337,,0
241601,Handelshafen,49.491806,8.453985,,0
241602,Handelshafen,49.491848,8.453653,,0
281001,Maxdorf,49.480106,8.293566,,0
554001,Franz-Sigel-Straße,49.462779,8.476956,,0
257005,Blumenau,49.561489,8.478676,,0
257006,Blumenau,49.561511,8.478724,,0
132702,Stift Neuburg,49.419319,8.735227,,0
132701,Stift Neuburg,49.419182,8.735456,,0
207401,Gartenstraße,49.488665,8.441346,,0
207402,Gartenstraße,49.489131,8.440812,,0
812706,Leuschnerstraße,49.495084,8.423611,,0
276305,Eisenlohrplatz,49.500882,8.494067,,0
262405,Langer Schlag,49.531093,8.509581,,0
262406,Langer Schlag,49.531175,8.509818,,0
263905,Wallstadt Sportanl.,49.500795,8.542214,,0
130701,Brahmsstr.,49.416911,8.761094,,0
117001,Kongresshaus,49.41273,8.701839,,0
117002,Kongresshaus,49.412872,8.702701,,0
348212,Schriesheim Süd,49.463879,8.6635,,0
348211,Schriesheim Süd,49.463254,8.663671,,0
257806,Eislebener Weg,49.508786,8.550508,,0
235405,Heizkraftwerk Nord,49.524114,8.454137,,0
243905,Max-Joseph-Straße,49.499634,8.47622,,0
247702,Werderstraße,49.480608,8.478234,,0
247701,Werderstraße,49.481089,8.476754,,0
260805,real Vogelstang,49.52058,8.55558,,0
236405,Kutzerweiher,49.483073,8.490909,,0
236406,Kutzerweiher,49.482978,8.490852,,0
259107,Seckenheim OEG-Bf.,49.46198,8.5695,,0
254206,Münchwälderstraße,49.42172,8.535032,,0
254205,Münchwälderstraße,49.421679,8.534476,,0
220605,Am Sportplatz,49.475359,8.336283,,0
220606,Am Sportplatz,49.475487,8.336219,,0
69610,Kirchheimer Str.,49.39979,8.62736,,0
602906,O.-Bauder-Sportanl.,49.465984,8.549685,,0
602905,O.-Bauder-Sportanl.,49.466231,8.550993,,0
429601,Unterdorf,49.466629,8.772768,,0
124301,Zoo,49.415258,8.663476,,0
429602,Unterdorf,49.466591,8.772343,,0
305805,Jacksonstraße,49.521984,8.528587,,0
208302,Heinrich-Pesch-Haus,49.4836,8.413098,,0
208301,Heinrich-Pesch-Haus,49.483625,8.413807,,0
269406,Wallstadt Mitte,49.496333,8.546396,,0
515706,Brunnenweg,49.472427,8.335054,,0
241306,Bonifatiuskirche,49.49869,8.48982,,0
158512,Leutershausen Bf.,49.498207,8.656618,,0
158511,Leutershausen Bf.,49.497647,8.656634,,0
554211,Kunsthalle,49.482936,8.473033,http://www.rnv-online.de/liniennetz/wichtige-umsteigepunkte.html,0
554212,Kunsthalle,49.4833,8.473566,http://www.rnv-online.de/liniennetz/wichtige-umsteigepunkte.html,0
69721,Eppelheim Rathaus,49.40163,8.62887,,0
250305,Holzweg,49.451729,8.561414,,0
128201,Im Grund,49.413755,8.771095,,0
128202,Im Grund,49.414153,8.770357,,0
256207,Kirschgartshausen,49.581194,8.447633,,0
246608,Tattersall,49.48064,8.47282,http://www.rnv-online.de/liniennetz/wichtige-umsteigepunkte.html,0
133601,Kleingemünder S. Ost,49.41645,8.7656,,0
133602,Kleingemünder S. Ost,49.416471,8.765569,,0
554501,Mannheimer Straße,49.507927,8.512372,,0
186305,Lagerhausstraße,49.46757,8.44942,,0
554502,Mannheimer Straße,49.508009,8.513278,,0
120802,Hagellachstr.,49.378186,8.672441,,0
120801,Hagellachstr.,49.378274,8.672647,,0
209008,Marienkirche,49.48507,8.4299,,0
209007,Marienkirche,49.485144,8.43043,,0
209006,Marienkirche,49.48547,8.43134,,0
209005,Marienkirche,49.48538,8.431377,,0
679502,Messplatz,49.39122,8.67549,,0
210236,Friesenheim Mitte,49.497407,8.420667,,0
210237,Friesenheim Mitte,49.497829,8.42044,,0
209001,Marienkirche,49.485254,8.430869,,0
210905,Val.-Bauer-Siedlung,49.478836,8.425387,,0
210906,Val.-Bauer-Siedlung,49.478988,8.427155,,0
264905,Öllager,49.529866,8.447095,,0
145502,Steigerweg,49.396873,8.694898,,0
122401,Bergstr.,49.413745,8.694315,,0
156336,Ärztehaus,49.403652,8.634379,,0
122402,Bergstr.,49.413765,8.694341,,0
62706,Neckarh. West,49.469376,8.589744,,0
246612,Tattersall,49.481597,8.473452,http://www.rnv-online.de/liniennetz/wichtige-umsteigepunkte.html,0
246611,Tattersall,49.48193,8.47272,http://www.rnv-online.de/liniennetz/wichtige-umsteigepunkte.html,0
62705,Neckarh. West,49.469426,8.589547,,0
675505,Universität West,49.487646,8.457501,,0
675506,Universität West,49.486945,8.457369,,0
261501,Waldhof Bahnhof,49.524788,8.481741,,0
261502,Waldhof Bahnhof,49.525244,8.481983,,0
261503,Waldhof Bahnhof,49.524677,8.481745,,0
202935,Ebertpark/Fichtestr.,49.4917,8.42054,,0
202205,Bruderweg,49.525956,8.391627,,0
555805,Antwerpener Straße,49.417637,8.505063,,0
554312,Theresienkrankenhaus,49.4902,8.48108,,0
239005,Stolzeneckstraße,49.446128,8.52268,,0
239006,Stolzeneckstraße,49.446195,8.522815,,0
113901,Alte Brücke,49.413437,8.708644,,0
113902,Alte Brücke,49.413612,8.710728,,0
614202,M.von-Graimberg-Haus,49.378353,8.680151,,0
614201,M.von-Graimberg-Haus,49.37837,8.67921,,0
587702,Grillhütte,49.488749,8.789986,,0
213905,Mundenheim Nord,49.465969,8.432641,,0
213907,Mundenheim Nord,49.46623,8.432313,,0
213906,Mundenheim Nord,49.465653,8.432754,,0
213901,Mundenheim Nord,49.465857,8.432127,,0
213902,Mundenheim Nord,49.46553,8.43168,,0
129001,Bonhoeffer-Straße,49.411944,8.658796,,0
129002,Bonhoeffer-Straße,49.412382,8.658164,,0
213908,Mundenheim Nord,49.465454,8.431917,,0
259005,Lämmertränke,49.459994,8.569695,,0
232505,Ziethenstraße,49.490091,8.518919,,0
232506,Ziethenstraße,49.490301,8.518969,,0
255205,G.-Hauptmann-Schule,49.414618,8.540138,,0
232502,Ziethenstraße,49.49045,8.519309,,0
238006,Pyramidenstraße,49.506619,8.464794,,0
238005,Pyramidenstraße,49.506709,8.464511,,0
264705,Arbeitstherap. Werks,49.462109,8.498954,,0
115502,Feuerbachstr.,49.393604,8.687568,,0
131602,Wielandtstr.,49.417445,8.682054,,0
131601,Wielandtstr.,49.417346,8.681575,,0
115501,Feuerbachstr.,49.39362,8.687463,,0
255301,Waldseestraße,49.431997,8.528454,,0
123201,Botanischer Garten,49.414209,8.668534,,0
123202,Botanischer Garten,49.414154,8.668989,,0
280606,Brauerei,49.49599,8.489865,,0
556205,Otto-Hahn-Straße,49.526031,8.454747,,0
555301,Schönau,49.546796,8.474265,,0
255302,Waldseestraße,49.431534,8.5288,,0
555302,Schönau,49.54725,8.47426,,0
385311,Viernheim Ost,49.537459,8.589402,,0
305905,Offizierssiedlung,49.519928,8.524593,,0
234905,Riedwiesen,49.417802,8.50783,,0
385312,Viernheim Ost,49.537517,8.589774,,0
216502,Wilhelm-Tell-Straße,49.490381,8.370006,,0
216501,Wilhelm-Tell-Straße,49.49057,8.37076,,0
267006,Otto-Thiele-Platz,49.46777,8.40084,,0
664705,Burbacher Straße,49.490126,8.394218,,0
188202,Johannes-Reidel-Str.,49.35381,8.6892,,0
188201,Johannes-Reidel-Str.,49.353445,8.689236,,0
664706,Burbacher Straße,49.489951,8.394955,,0
225805,Fahrlach,49.473682,8.498391,,0
225806,Fahrlach,49.473411,8.498859,,0
217105,Oppau Gemeindehaus,49.521441,8.404467,,0
225802,Fahrlach,49.473231,8.498913,,0
237806,Wachenheimer Straße,49.498205,8.508157,,0
237805,Wachenheimer Straße,49.498582,8.50778,,0
127301,Markscheide,49.386113,8.690511,,0
127302,Markscheide,49.387185,8.690491,,0
61605,Edingen Ost,49.444392,8.617987,,0
664605,Völklinger Straße LU,49.48867,8.40419,,0
664606,Völklinger Straße LU,49.48856,8.40443,,0
239401,Tannhäuserring,49.452414,8.477707,,0
239402,Tannhäuserring,49.452186,8.476979,,0
131801,Langer Kirschbaum,49.459024,8.751355,,0
131802,Langer Kirschbaum,49.459075,8.751243,,0
130820,Köpfel,49.423225,8.74311,,0
118702,Römerkreis Süd,49.40476,8.68466,,0
118701,Römerkreis Süd,49.404414,8.684568,,0
117102,Königstuhl,49.402714,8.727775,,0
114101,Bergfriedhof,49.395654,8.68985,,0
144202,Abzw. Bärsbach,49.497947,8.772288,,0
559002,Schafweide,49.494477,8.479618,,0
559001,Schafweide,49.494829,8.479178,,0
299862,Letzter Heller,49.39377,8.800864,,0
82405,FT Altenheim,49.53595,8.36003,,0
241705,MA Hauptbahnhof,49.480317,8.469337,http://www.rnv-online.de/liniennetz/wichtige-umsteigepunkte.html,0
241706,MA Hauptbahnhof,49.480052,8.469989,http://www.rnv-online.de/liniennetz/wichtige-umsteigepunkte.html,0
241707,MA Hauptbahnhof,49.4803,8.4686,http://www.rnv-online.de/liniennetz/wichtige-umsteigepunkte.html,0
214101,Schillerschule,49.460292,8.427852,,0
214102,Schillerschule,49.459735,8.427606,,0
215451,Hans-Warsch-Platz,49.492531,8.376508,,0
215452,Hans-Warsch-Platz,49.492791,8.376098,,0
257306,Graudenzer Linie,49.539407,8.481054,,0
257305,Graudenzer Linie,49.539302,8.481119,,0
248405,Ausgasse,49.548109,8.438998,,0
603606,Pfingstberg Sportan.,49.449436,8.524526,,0
603605,Pfingstberg Sportan.,49.449159,8.524846,,0
132602,Schweizertalstr.,49.448227,8.753273,,0
132601,Schweizertalstr.,49.44836,8.75338,,0
120301,S-Bf Kirchh./Rohrb.,49.378775,8.675299,,0
120302,S-Bf Kirchh./Rohrb.,49.378778,8.675207,,0
121302,Mathilde-Vogt-Haus,49.381115,8.660681,,0
121301,Mathilde-Vogt-Haus,49.381141,8.660402,,0
210001,Rohrlachstraße,49.483105,8.429817,,0
130601,Waldorfschule HD,49.438355,8.633806,,0
210002,Rohrlachstraße,49.483231,8.42899,,0
210005,Rohrlachstraße,49.482556,8.429932,,0
233906,Einsteinstraße,49.519316,8.459744,,0
210007,Rohrlachstraße,49.483095,8.43091,,0
210006,Rohrlachstraße,49.48278,8.43028,,0
210008,Rohrlachstraße,49.48267,8.43188,,0
262706,Papyrus,49.533616,8.459549,,0
262705,Papyrus,49.533409,8.460137,,0
125802,Schützenstr.,49.399338,8.648039,,0
253202,Distelsand,49.427847,8.531716,,0
253201,Distelsand,49.428343,8.531419,,0
425601,Schwetzinger Terrass,49.399316,8.671761,,0
247005,Ulmenweg,49.50709,8.49274,,0
247006,Ulmenweg,49.507393,8.493336,,0
247001,Ulmenweg,49.50739,8.49301,,0
247002,Ulmenweg,49.5077,8.49361,,0
113001,Mombertplatz,49.36908,8.704279,http://www.rnv-online.de/liniennetz/wichtige-umsteigepunkte.html,0
218101,Oppau,49.517556,8.410117,,0
113002,Mombertplatz,49.369554,8.704051,http://www.rnv-online.de/liniennetz/wichtige-umsteigepunkte.html,0
218105,Oppau,49.518064,8.410113,,0
236501,Hessische Straße,49.51518,8.49619,,0
236502,Hessische Straße,49.51567,8.49641,,0
264505,Wallstadt West,49.500713,8.543642,,0
612002,Im Hauskorb,49.469441,8.796715,,0
612001,Im Hauskorb,49.469383,8.796396,,0
564705,Hafenbahnstraße,49.51374,8.482268,,0
564706,Hafenbahnstraße,49.513522,8.483607,,0
248107,Neckarau Bahnhof,49.455001,8.495407,,0
61912,Edingen Bahnhof,49.441147,8.615376,,0
425602,Schwetzinger Terrass,49.39946,8.67164,,0
287505,Meßkircher Straße,49.461365,8.561706,,0
217405,Kurt-Schumacher-Str.,49.52549,8.39909,,0
203501,Rheinfeldstraße,49.499176,8.425062,,0
203502,Rheinfeldstraße,49.499477,8.424792,,0
203505,Rheinfeldstraße,49.500004,8.424567,,0
203506,Rheinfeldstraße,49.499223,8.424793,,0
555505,Eugen-Neter-Schule,49.565933,8.493165,,0
258712,Deutscher Hof,49.47087,8.55702,,0
256305,Krähenflügel,49.55131,8.456694,,0
256306,Krähenflügel,49.551417,8.457486,,0
237106,Käfertal Rathaus,49.513097,8.517326,,0
237105,Käfertal Rathaus,49.51205,8.517878,,0
120902,Harbigweg,49.391885,8.670072,,0
120901,Harbigweg,49.392006,8.669227,,0
679401,Montpellierbrücke,49.400513,8.678372,,0
679402,Montpellierbrücke,49.40079,8.67874,,0
125601,Marktstr.,49.403519,8.647256,,0
114302,Bethanienkrankenhaus,49.392596,8.690218,,0
133701,Chirurgische Klinik,49.41372,8.673728,,0
133702,Chirurgische Klinik,49.413763,8.673415,,0
112601,Louise-Ebert-Zentrum,49.373004,8.703735,,0
112602,Louise-Ebert-Zentrum,49.37283,8.70365,,0
673905,Budapester Straße,49.537945,8.389165,,0
232605,Alteichwaldsiedlung,49.43226,8.57205,,0
122501,Blumenthalstr.,49.421556,8.68906,,0
122502,Blumenthalstr.,49.42207,8.68895,,0
125202,Henkel-Teroson-Str.,49.4058,8.6527,,0
62606,Neckarh. Schloss,49.464614,8.602036,,0
62605,Neckarh. Schloss,49.46418,8.602517,,0
125201,Henkel-Teroson-Str.,49.405689,8.652342,,0
298501,Ngmd. Altes Rathaus,49.393245,8.799461,,0
574201,Dossenheim Nord,49.452844,8.667348,,0
574202,Dossenheim Nord,49.453463,8.667083,,0
263605,Osterburker Straße,49.493904,8.547069,,0
263606,Osterburker Straße,49.493722,8.546217,,0
752205,Drehbrücke,49.47035,8.45283,,0
238615,Luzenberg,49.516463,8.475755,http://www.rnv-online.de/liniennetz/wichtige-umsteigepunkte.html,0
614302,Herrenmühle,49.413895,8.717732,,0
614304,Herrenmühle,49.414383,8.717121,,0
555906,Hofrat-Wild-Straße,49.450203,8.520772,,0
202105,Anglerstraße,49.53232,8.382927,,0
555905,Hofrat-Wild-Straße,49.45013,8.522165,,0
131702,Kreuzgrundweg,49.431771,8.74746,,0
131701,Kreuzgrundweg,49.431677,8.747678,,0
252101,Duale Hochschule,49.475326,8.534086,,0
243906,Max-Joseph-Straße,49.499669,8.476313,,0
280905,Landzungenstraße,49.495378,8.454274,,0
123102,Jugendherberge,49.417339,8.661133,,0
123101,Jugendherberge,49.417377,8.661059,,0
216205,Speyerer Straße(LU),49.482122,8.367182,,0
216206,Speyerer Straße(LU),49.48209,8.367129,,0
110702,Hirtenbrunnenweg,49.422635,8.756339,,0
110701,Hirtenbrunnenweg,49.422625,8.7564,,0
234605,Ölhafen,49.525165,8.449141,,0
295105,Besselstraße,49.450287,8.51631,,0
217005,Frankenstraße,49.515126,8.403498,,0
217006,Frankenstraße,49.515183,8.403644,,0
261602,Roche,49.528692,8.468683,,0
261601,Roche,49.528296,8.469148,,0
261606,Roche,49.528704,8.468916,,0
261605,Roche,49.528416,8.469127,,0
273205,Herrenalber Straße,49.469082,8.552086,,0
273206,Herrenalber Straße,49.468894,8.551871,,0
344301,Steinachbrücke,49.466984,8.801416,,0
344302,Steinachbrücke,49.467193,8.801389,,0
411311,Freiburger Straße,49.545324,8.628792,,0
411312,Freiburger Straße,49.545106,8.630951,,0
259906,Pumpwerk,49.46069,8.55263,,0
259905,Pumpwerk,49.45941,8.55059,,0
219405,Dürkheimer Straße,49.492348,8.368626,,0
234045,BASF Friesenh. Insel,49.52174,8.446591,,0
218806,Eschenbachstraße,49.499223,8.424793,,0
127201,Kolbenzeil,49.373791,8.68157,,0
127202,Kolbenzeil,49.373845,8.681921,,0
127203,Kolbenzeil,49.37381,8.68166,,0
61706,Thomas-Mann-Straße,49.466284,8.600419,,0
61705,Thomas-Mann-Straße,49.466311,8.600497,,0
252301,Carl-Benz-Stadion,49.477829,8.502208,,0
245212,Pestalozzischule,49.478772,8.482164,,0
245211,Pestalozzischule,49.478551,8.482306,,0
281402,Maxdorf Süd,49.476561,8.289268,,0
281401,Maxdorf Süd,49.476377,8.289276,,0
65602,Ellerstadt Ost,49.464151,8.264612,,0
65601,Ellerstadt Ost,49.464052,8.264288,,0
114001,Alter Kohlhof,49.388087,8.731164,,0
114002,Alter Kohlhof,49.388386,8.731151,,0
82305,FT Schmiedgasse,49.53692,8.35503,,0
118602,Rohrbacher Grenzweg,49.396061,8.697018,,0
118601,Rohrbacher Grenzweg,49.396195,8.696955,,0
680306,Irisstraße,49.458961,8.371937,,0
680305,Irisstraße,49.458819,8.372251,,0
110901,Moselbrunnenweg,49.422549,8.760691,,0
110902,Moselbrunnenweg,49.422184,8.760492,,0
261805,Föhrenweg,49.537215,8.499652,,0
261806,Föhrenweg,49.53711,8.500046,,0
617301,Kompostwerk,49.435814,8.640013,,0
569805,Dortmunder Straße,49.418785,8.515381,,0
248702,Friedrichstraße,49.45324,8.495519,,0
248701,Friedrichstraße,49.453625,8.495132,,0
248706,Friedrichstraße,49.453778,8.494304,,0
248705,Friedrichstraße,49.453295,8.495101,,0
214202,Wollstraße,49.48583,8.39706,,0
214201,Wollstraße,49.485834,8.396974,,0
113606,Hans-Thoma-Platz,49.42816,8.68266,,0
257206,Brockenweg,49.557011,8.479963,,0
119411,Stadtwerke,49.404912,8.681323,,0
119412,Stadtwerke,49.405027,8.682359,,0
204006,Schopenhauerstraße,49.496447,8.426761,,0
120005,Albert-Fritz-Str.,49.38409,8.672132,,0
120002,Albert-Fritz-Str.,49.38318,8.67236,,0
120001,Albert-Fritz-Str.,49.38286,8.67219,,0
221805,Bliesstraße,49.479409,8.42266,,0
221806,Bliesstraße,49.479226,8.422357,,0
557505,Haus Waldhof,49.525912,8.486049,,0
557506,Haus Waldhof,49.52539,8.485847,,0
262606,Waldhof Nord,49.53255,8.481111,,0
262607,Waldhof Nord,49.532747,8.481208,,0
262602,Waldhof Nord,49.531195,8.481021,,0
262601,Waldhof Nord,49.53062,8.48143,,0
233806,Dürstelschlag,49.510804,8.452373,,0
233805,Dürstelschlag,49.51075,8.452392,,0
253505,Leutweinstraße,49.419743,8.53028,,0
69702,Eppelheim Rathaus,49.401611,8.629096,,0
253506,Leutweinstraße,49.42012,8.528363,,0
257205,Brockenweg,49.557194,8.479832,,0
235605,Käfertal DB-Bahnhof,49.502901,8.503573,,0
128002,Adlerüberfahrt,49.416056,8.755049,,0
128001,Adlerüberfahrt,49.41612,8.756123,,0
260601,Vogelstang,49.511757,8.543754,,0
236606,Maximilianstraße,49.48251,8.485707,,0
236605,Maximilianstraße,49.482487,8.485358,,0
254405,Rheinau Karlsplatz,49.438972,8.522802,,0
113101,Otto-Hahn-Str.,49.365874,8.705096,,0
113102,Otto-Hahn-Str.,49.36602,8.70476,,0
204505,Kallstadter Straße,49.464225,8.401484,,0
204506,Kallstadter Straße,49.464351,8.400916,,0
707802,Hildastr.,49.401527,8.634592,,0
707801,Hildastr.,49.402157,8.634945,,0
604105,MA Rathaus/REM,49.488982,8.462821,,0
291106,Pfalzburger Straße,49.443069,8.573245,,0
252805,Fr.-Nansen-Weg,49.412715,8.540878,,0
604106,MA Rathaus/REM,49.489253,8.462325,,0
211506,Maudach Ortsmitte,49.454158,8.379173,,0
211505,Maudach Ortsmitte,49.454016,8.378336,,0
243005,Landgüterhalle,49.496202,8.450219,,0
269605,G.-Heieck-Str.(Melm),49.510326,8.384058,,0
347920,Schriesheim Bahnhof,49.47147,8.660478,,0
113211,Biethsstr.,49.42987,8.68252,,0
113212,Biethsstr.,49.43068,8.68251,,0
851805,Moll-Gym. 1/Belchens.,49.463355,8.469382,,0
256002,Hanfstraße,49.538613,8.450919,,0
256001,Hanfstraße,49.538181,8.451201,,0
217905,Ostringplatz,49.532696,8.389953,,0
256006,Hanfstraße,49.538363,8.451229,,0
217907,Ostringplatz,49.533777,8.389395,,0
217906,Ostringplatz,49.532613,8.389915,,0
217909,Ostringplatz,49.532756,8.389399,,0
217908,Ostringplatz,49.532837,8.390892,,0
251905,Lucas-Cranach-Straße,49.478464,8.512511,,0
133402,Sandwingert,49.418794,8.644378,,0
133401,Sandwingert,49.41897,8.64437,,0
112501,Im Eichwald,49.372391,8.70622,,0
231501,Feudenheim,49.48404,8.53763,,0
209806,Bayreuther Straße,49.477777,8.419753,,0
209805,Bayreuther Straße,49.477726,8.419556,,0
232705,Elsa-Brändström-Str.,49.45021,8.56537,,0
231505,Feudenheim,49.48411,8.53782,,0
238608,Luzenberg,49.516266,8.475291,http://www.rnv-online.de/liniennetz/wichtige-umsteigepunkte.html,0
238604,Luzenberg,49.516369,8.475047,http://www.rnv-online.de/liniennetz/wichtige-umsteigepunkte.html,0
238607,Luzenberg,49.51652,8.47567,http://www.rnv-online.de/liniennetz/wichtige-umsteigepunkte.html,0
238601,Luzenberg,49.516102,8.47573,http://www.rnv-online.de/liniennetz/wichtige-umsteigepunkte.html,0
238603,Luzenberg,49.515999,8.475233,http://www.rnv-online.de/liniennetz/wichtige-umsteigepunkte.html,0
238602,Luzenberg,49.516553,8.476495,http://www.rnv-online.de/liniennetz/wichtige-umsteigepunkte.html,0
247305,Verl. Jungbuschstr.,49.494697,8.452222,,0
298602,Neckargemünd Bf,49.394106,8.787199,,0
298601,Neckargemünd Bf,49.394064,8.787335,,0
214105,Schillerschule,49.460075,8.427649,,0
114901,Rudolf-Diesel-Str.,49.395987,8.677795,,0
114903,Rudolf-Diesel-Str.,49.395962,8.677784,,0
114902,Rudolf-Diesel-Str.,49.39688,8.67906,,0
114906,Rudolf-Diesel-Str.,49.39612,8.67719,,0
114908,Rudolf-Diesel-Str.,49.3968,8.67908,,0
214106,Schillerschule,49.459721,8.42772,,0
268005,Gotenstraße,49.49971,8.555243,,0
115235,Czernybrücke Süd,49.40528,8.66756,,0
252112,Duale Hochschule,49.475246,8.534548,,0
284905,Heinrich-Halfen-Str.,49.507628,8.380771,,0
248505,Sandhofen Rathaus,49.545011,8.443168,,0
214905,Bexbacher Straße,49.492077,8.397346,,0
214906,Bexbacher Straße,49.492069,8.39822,,0
555605,Sonderburger Straße,49.536111,8.481144,,0
555606,Sonderburger Straße,49.53538,8.481048,,0
385120,Viernheim Bahnhof,49.53504,8.58208,,0
129202,Wiebl. Evang. Kirche,49.427032,8.647015,,0
129201,Wiebl. Evang. Kirche,49.426073,8.647466,,0
212205,Maudach Ortseingang,49.455136,8.389852,,0
212206,Maudach Ortseingang,49.455122,8.389214,,0
411812,Händelstraße,49.549049,8.656545,,0
411811,Händelstraße,49.548683,8.65555,,0
259802,Carl-Benz-Bad,49.52675,8.50583,,0
259801,Carl-Benz-Bad,49.52631,8.5053,,0
302005,Taylor Ost,49.514611,8.556531,,0
131001,Grüner Baum,49.437754,8.75206,,0
131002,Grüner Baum,49.437555,8.751988,,0
123002,Fußballcampus HD,49.425349,8.656832,,0
206106,Edigheim Friedhof,49.530158,8.394311,,0
206105,Edigheim Friedhof,49.530339,8.394123,,0
123001,Fußballcampus HD,49.425356,8.656769,,0
556005,Pfalzplatz,49.464705,8.46992,,0
110602,Schleifengrundweg,49.423903,8.75782,,0
110603,Schleifengrundweg,49.423895,8.757848,,0
145401,S-Bf Pfaffeng./Wbl.,49.412122,8.641262,,0
234705,Ölhafenstraße,49.5231,8.450037,,0
681005,Heuweg,49.473395,8.409488,,0
251601,Kopernikusstraße,49.478401,8.477642,,0
264207,Hansastraße,49.50919,8.469385,,0
117901,Oberer Fauler Pelz,49.409645,8.709354,,0
117902,Oberer Fauler Pelz,49.409221,8.708066,,0
261706,Eschenhof,49.535461,8.504585,,0
261705,Eschenhof,49.535546,8.504224,,0
664506,Ebertpark Süd,49.487056,8.414871,,0
344001,Abzweig Klinge,49.455799,8.807242,,0
205006,Pommernstraße,49.454766,8.405563,,0
205005,Pommernstraße,49.454255,8.405855,,0
213005,Mundenheim Friedhof,49.468181,8.416871,,0
238205,Amselstraße,49.545944,8.459144,,0
215506,Hollergärten,49.489916,8.384665,,0
215505,Hollergärten,49.489619,8.383668,,0
120102,Alfred-Jost-Str.,49.378868,8.65912,,0
120101,Alfred-Jost-Str.,49.378593,8.659042,,0
119405,Stadtwerke,49.405075,8.681104,,0
124802,Ziegelh. Friedhof,49.419693,8.760818,,0
124801,Ziegelh. Friedhof,49.41954,8.761004,,0
118101,Peterskirche,49.408932,8.705425,,0
118102,Peterskirche,49.409035,8.705286,,0
253405,Karl-Schwaner-Straße,49.419124,8.53373,,0
241505,Güteramt,49.49855,8.44855,,0
244005,Möhlstraße,49.474691,8.4871,,0
244006,Möhlstraße,49.47487,8.486962,,0
249705,Markuskirche,49.464761,8.475339,,0
249706,Markuskirche,49.46497,8.47513,,0
249707,Markuskirche,49.46462,8.475835,,0
249702,Markuskirche,49.465244,8.475059,,0
248606,Neckarau Friedhof,49.455038,8.501579,,0
248605,Neckarau Friedhof,49.454805,8.501118,,0
214706,Am Weidenschlag,49.505728,8.375809,,0
247112,Universität,49.481539,8.465762,,0
247111,Universität,49.482671,8.465374,,0
63006,Breslauer Str.(NEd),49.44959,8.585499,,0
63005,Breslauer Str.(NEd),49.449478,8.585403,,0
121501,Obere Seegasse,49.377228,8.669191,,0
221907,BASF Süd,49.493314,8.434862,,0
210206,Friesenheim Mitte,49.498201,8.419292,,0
210205,Friesenheim Mitte,49.498323,8.419154,,0
117301,Karlsplatz,49.412506,8.712836,,0
210208,Friesenheim Mitte,49.497555,8.420149,,0
260605,Vogelstang,49.512423,8.54371,,0
260606,Vogelstang,49.512463,8.543965,,0
108601,Bärenbach Nord,49.415049,8.772668,,0
214505,Niederfeld,49.476359,8.401331,,0
202906,Ebertpark/Fichtestr.,49.491555,8.421155,,0
202905,Ebertpark/Fichtestr.,49.491701,8.420919,,0
202902,Ebertpark/Fichtestr.,49.491761,8.420885,,0
202901,Ebertpark/Fichtestr.,49.491477,8.421318,,0
247206,Untermühlaustraße,49.51133,8.471593,,0
247205,Untermühlaustraße,49.510791,8.471166,,0
247202,Untermühlaustraße,49.511314,8.471444,,0
247201,Untermühlaustraße,49.51068,8.47125,,0
254505,Pfingstberg,49.446204,8.529712,,0
254506,Pfingstberg,49.445991,8.529174,,0
204405,Hochfeldstraße,49.466338,8.408137,,0
204406,Hochfeldstraße,49.466174,8.408136,,0
204408,Hochfeldstraße,49.465741,8.408901,,0
204409,Hochfeldstraße,49.465509,8.407703,,0
236705,Platz der Freundsch.,49.51845,8.53784,,0
327805,Luzenberg Ost,49.516774,8.477919,,0
112404,Haselnussweg,49.37408,8.703117,,0
133501,Im Heimgarten,49.39547,8.643063,,0
112403,Haselnussweg,49.374008,8.70308,,0
112401,Haselnussweg,49.37454,8.702652,,0
233005,Neudorfstraße,49.440233,8.575913,,0
252906,Frobeniusstraße,49.416767,8.537913,,0
600505,Akademiestraße,49.4924,8.456721,,0
252905,Frobeniusstraße,49.416884,8.538195,,0
269105,Wallstadt Friedhof,49.500526,8.552691,,0
243101,Landwehrstraße,49.50547,8.4897,,0
243102,Landwehrstraße,49.50576,8.49032,,0
600506,Akademiestraße,49.492495,8.45682,,0
269705,Steinzeugstraße,49.44696,8.56742,,0
108801,Im Anger,49.411652,8.766955,,0
251806,Hans-Thoma-Straße,49.474742,8.524139,,0
251805,Hans-Thoma-Straße,49.475243,8.524343,,0
234446,Max-Planck-Straße,49.519337,8.457136,,0
234445,Max-Planck-Straße,49.519316,8.456972,,0
91002,Fußgönheim,49.466213,8.287335,,0
91001,Fußgönheim,49.466497,8.287701,,0
256106,Karl-Schweizer-Park,49.548853,8.447976,,0
217805,Oppau West,49.522309,8.394622,,0
256105,Karl-Schweizer-Park,49.549213,8.448585,,0
243211,Lange Rötterstraße,49.495742,8.486387,,0
243212,Lange Rötterstraße,49.49617,8.48691,,0
238705,Mercedes-Benz Tor 1,49.516413,8.479717,,0
144404,Hkrz Marktplatz,49.48474,8.79677,,0
254404,Rheinau Karlsplatz,49.438466,8.522641,,0
132101,Mühldamm,49.425271,8.751901,,0
132102,Mühldamm,49.424953,8.752025,,0
231405,Feldstraße,49.488323,8.543633,,0
231406,Feldstraße,49.488679,8.543815,,0
254401,Rheinau Karlsplatz,49.439035,8.522985,,0
231102,Adolf-Damaschke-Ring,49.493641,8.520984,,0
242507,MA RCHIVUM,49.499815,8.461565,,0
242506,MA RCHIVUM,49.499454,8.461344,,0
242505,MA RCHIVUM,49.499508,8.461521,,0
263406,Kiesäcker,49.498463,8.536477,,0
114801,Schönauer Abtweg,49.420683,8.759798,,0
114802,Schönauer Abtweg,49.420668,8.759661,,0
254402,Rheinau Karlsplatz,49.43856,8.52332,,0
238412,Meeräckerplatz,49.468988,8.471914,,0
330606,Floßwörth,49.460003,8.499606,,0
330605,Floßwörth,49.460071,8.498857,,0
244901,Neuer Meßplatz,49.504885,8.469981,,0
555701,Blücherstraße,49.487379,8.527329,,0
555702,Blücherstraße,49.48734,8.527753,,0
244902,Neuer Meßplatz,49.505361,8.470001,,0
614501,Kopfklinik,49.419048,8.667138,,0
614502,Kopfklinik,49.419173,8.666949,,0
129501,Hermann-Treiber-Str.,49.419646,8.651818,,0
129502,Hermann-Treiber-Str.,49.4198,8.651873,,0
132502,Rainweg,49.430216,8.746769,,0
608006,Am Salzkai,49.49641,8.46081,,0
640901,Turnerbrunnen,49.431789,8.705377,,0
127002,Im Breitspiel,49.365326,8.687047,,0
213306,Stifterstraße,49.468503,8.435386,,0
213305,Stifterstraße,49.468673,8.435263,,0
127001,Im Breitspiel,49.364944,8.686672,,0
213302,Stifterstraße,49.468493,8.435172,,0
213301,Stifterstraße,49.468799,8.435563,,0
600806,Leoniweg,49.51036,8.49261,,0
131101,Haarlaß,49.420209,8.730295,,0
131102,Haarlaß,49.420151,8.729127,,0
259705,Suebenheim,49.455203,8.569994,,0
259706,Suebenheim,49.45483,8.570057,,0
206009,BASF,49.494586,8.430622,,0
206002,BASF,49.494998,8.432839,,0
206001,BASF,49.494442,8.433686,,0
206006,BASF,49.495814,8.430227,,0
206007,BASF,49.495453,8.432381,,0
206005,BASF,49.494366,8.430377,,0
261008,Vogelstang Zentrum,49.511206,8.538469,,0
128801,Carl-Bosch-Museum,49.415721,8.729098,,0
261005,Vogelstang Zentrum,49.51088,8.539228,,0
261007,Vogelstang Zentrum,49.511182,8.538161,,0
261006,Vogelstang Zentrum,49.510715,8.539351,,0
261001,Vogelstang Zentrum,49.51027,8.53862,,0
261002,Vogelstang Zentrum,49.51051,8.53937,,0
263007,Waldstraße,49.52906,8.48856,,0
205106,Schlesierstraße,49.452447,8.404357,,0
205107,Schlesierstraße,49.451956,8.405147,,0
205105,Schlesierstraße,49.452587,8.403966,,0
250501,Diesterwegschule,49.471566,8.469868,,0
205108,Schlesierstraße,49.45203,8.40519,,0
344101,Krone,49.460831,8.806398,,0
240606,Fernmeldeturm,49.486904,8.49297,,0
240605,Fernmeldeturm,49.486988,8.492804,,0
515705,Brunnenweg,49.472195,8.334341,,0
215408,Hans-Warsch-Platz,49.493412,8.376072,,0
263002,Waldstraße,49.52853,8.4894,,0
246502,Strohmarkt,49.48618,8.470126,,0
246501,Strohmarkt,49.486397,8.469659,,0
348412,Zentgrafenstraße,49.477361,8.657469,,0
237608,Käfertal Süd,49.50639,8.50485,,0
119502,Sternwarte,49.400799,8.727345,,0
119503,Sternwarte,49.400684,8.727322,,0
119501,Sternwarte,49.400608,8.72739,,0
124902,Im Dornbusch,49.395875,8.649121,,0
242705,Kurpfalzbrücke,49.492898,8.470669,,0
125501,Kurpfalzring Süd,49.40263,8.640969,,0
125502,Kurpfalzring Süd,49.402466,8.640874,,0
670905,Neckarh. Friedhof,49.460942,8.598047,,0
249402,Lettestraße,49.465443,8.486681,,0
249401,Lettestraße,49.465384,8.486855,,0
262206,Glücksburger Weg,49.536407,8.486268,,0
248105,Neckarau Bahnhof,49.455453,8.494434,,0
251106,Lochgärten,49.469967,8.499543,,0
251105,Lochgärten,49.470139,8.499668,,0
248101,Neckarau Bahnhof,49.455403,8.494299,,0
248102,Neckarau Bahnhof,49.455496,8.494131,,0
262205,Glücksburger Weg,49.536104,8.4853,,0
248108,Neckarau Bahnhof,49.455259,8.495188,,0
11601,Bad Dürkheim Bahnhof,49.461467,8.170481,,0
615905,Holländerstraße,49.428181,8.50902,,0
587101,Gewerbegebiet,49.426591,8.808979,,0
245125,Paradeplatz,49.48784,8.46638,http://www.rnv-online.de/liniennetz/wichtige-umsteigepunkte.html,0
63106,Lilienstraße,49.445994,8.582347,,0
63105,Lilienstraße,49.445873,8.582231,,0
554408,Universitätsklinikum,49.493404,8.484224,,0
554405,Universitätsklinikum,49.49365,8.48366,,0
554403,Universitätsklinikum,49.493803,8.484508,,0
132001,Mittlerer Rainweg,49.426098,8.746704,,0
132002,Mittlerer Rainweg,49.426134,8.746591,,0
569806,Dortmunder Straße,49.418782,8.515353,,0
236711,Platz der Freundsch.,49.518339,8.538109,,0
118904,Römerstr.,49.407858,8.685047,,0
236712,Platz der Freundsch.,49.518522,8.539196,,0
118901,Römerstr.,49.40789,8.68494,,0
118903,Römerstr.,49.407931,8.685248,,0
118902,Römerstr.,49.40792,8.68535,,0
604101,MA Rathaus/REM,49.489134,8.4625,,0
245803,Rheinstraße MA,49.49089,8.458136,,0
123802,Pädagog. Hochschule,49.419472,8.66977,,0
123801,Pädagog. Hochschule,49.419452,8.669885,,0
125237,Henkel-Teroson-Str.,49.406666,8.651602,,0
600606,Popakademie,49.497049,8.457635,,0
600605,Popakademie,49.496365,8.457463,,0
474306,Oppau Friedhof,49.521872,8.40867,,0
474305,Oppau Friedhof,49.5219,8.408725,,0
236005,Thomashaus,49.466404,8.50673,,0
236006,Thomashaus,49.466539,8.506344,,0
255506,Bartholomäuskirche,49.546042,8.446708,,0
202806,Wolfsgrube,49.525495,8.388433,,0
202805,Wolfsgrube,49.524991,8.388851,,0
752236,Drehbrücke,49.470631,8.453509,,0
133201,Augustinum,49.362895,8.703482,,0
133202,Augustinum,49.362937,8.703578,,0
265905,Fürstenwalder Weg,49.510348,8.535505,,0
265906,Fürstenwalder Weg,49.510302,8.53557,,0
207505,Goerdelerplatz,49.490116,8.431004,,0
207506,Goerdelerplatz,49.489314,8.431685,,0
243206,Lange Rötterstraße,49.496099,8.486959,,0
243205,Lange Rötterstraße,49.495968,8.486351,,0
233705,Bastion,49.5177,8.466028,,0
670906,Neckarh. Friedhof,49.462029,8.598693,,0
233706,Bastion,49.517764,8.466022,,0
252605,Chiemseestraße,49.417233,8.534188,,0
252606,Chiemseestraße,49.417112,8.534074,,0
256005,Hanfstraße,49.538258,8.451246,,0
242406,Ida-Scipio-Heim,49.499224,8.480151,,0
144403,Hkrz Marktplatz,49.48486,8.79662,,0
242405,Ida-Scipio-Heim,49.499058,8.481445,,0
251906,Lucas-Cranach-Straße,49.478482,8.512939,,0
327806,Luzenberg Ost,49.515784,8.476052,,0
209606,LU Rathaus,49.484142,8.441094,http://www.rnv-online.de/liniennetz/wichtige-umsteigepunkte.html,0
256605,Scharhof,49.560164,8.447929,,0
256607,Scharhof,49.560017,8.447739,,0
188402,Moltkestr.,49.34553,8.69231,,0
126501,Erlenweg,49.377867,8.677343,,0
126502,Erlenweg,49.377003,8.677228,,0
258805,Hochstätt,49.453211,8.539355,,0
258806,Hochstätt,49.452516,8.538319,,0
127901,Tullastr.,49.36536,8.679658,,0
231702,Feudenheim Kirche,49.486306,8.53048,,0
231701,Feudenheim Kirche,49.486538,8.530683,,0
231706,Feudenheim Kirche,49.486576,8.531426,,0
231705,Feudenheim Kirche,49.486745,8.530608,,0
679504,Messplatz,49.391935,8.675802,,0
238405,Meeräckerplatz,49.469486,8.47167,,0
713502,Speyererhof,49.395546,8.709353,,0
238401,Meeräckerplatz,49.469235,8.471359,,0
209601,LU Rathaus,49.485088,8.443214,http://www.rnv-online.de/liniennetz/wichtige-umsteigepunkte.html,0
209602,LU Rathaus,49.485195,8.443208,http://www.rnv-online.de/liniennetz/wichtige-umsteigepunkte.html,0
209605,LU Rathaus,49.484255,8.440965,http://www.rnv-online.de/liniennetz/wichtige-umsteigepunkte.html,0
214606,Adolf-Kolping-Straße,49.494499,8.362504,,0
206907,BBS Franz-Zang-Str.,49.468388,8.420074,,0
206906,BBS Franz-Zang-Str.,49.470338,8.420885,,0
206905,BBS Franz-Zang-Str.,49.469311,8.420092,,0
